X,Y,CCN,ADDRESS,DATE_OF_OFFENSE,TIME_OF_OFFENSE,DATE_OFFENSE_RECORDED,REPORT_YEAR,MONTH,POLICE_DISTRICT,WARD,TYPE_OF_HATE_BIAS,TARGETED_GROUP,TOP_OFFENSE_TYPE,MAR_ID,MAR_XCOORD,MAR_YCOORD,MAR_LATITUDE,MAR_LONGITUDE,SE_ANNO_CAD_DATA,GLOBALID,CREATED_USER,CREATED_DATE,LAST_EDITED_USER,LAST_EDITED_DATE,OBJECTID,SHAPE
-77.0151850956465,38.9111289486642,13005668,3rd St NW and Q St NW,2013/01/13 05:00:00+00,1808-1809,2013/01/13 05:00:00+00,2013,1,5D,Ward 5,Sexual Orientation,,Simple Assault,901240,398683.19001273,138139.95001363,38.91112116,-77.01518281,,{ECA00B60-A2BB-46D9-9E22-5852D7CDFC2A},,,MPD,2024/02/16 21:02:52+00,4171,
-77.0218075405059,38.9679410500389,13016960,600 block of Tewkesbury Pl NW,2013/02/05 05:00:00+00,2200,2013/02/07 05:00:00+00,2013,2,4D,Ward 4,Religion,Jewish,Damage/Defacing/Destruction of Property,803021,398110.33,144446.71,38.96793325,-77.02180525,,{AA732AC4-FC73-4D61-AC22-4DC573AB7473},,,MPD,2024/02/16 21:02:52+00,4172,
-77.0229835388427,38.9029507962568,13017988,800 block of Mt Vernon Pl NW,2013/02/09 05:00:00+00,1400-1405,2013/02/09 05:00:00+00,2013,2,3D,Ward 2,Sexual Orientation,,Simple Assault,813971,398006.6,137232.25,38.90294301,-77.02298125,,{BDCC8310-1984-482C-B322-30DDF97B62A3},,,MPD,2024/02/16 21:02:52+00,4173,
-77.0080923909328,38.8346776865708,13024055,3800 block of South Capitol St SE,2013/02/22 05:00:00+00,1440-1448,2013/02/22 05:00:00+00,2013,2,7D,Ward 8,Gender Identity/Expression,,ADW,811674,399297.59,129653.21,38.83466991,-77.00809011,,{65D203E1-D890-4AF0-8D82-07F579E32FA8},,,MPD,2024/02/16 21:02:52+00,4174,
-77.0332438056735,38.917004587679,13027781,1400 block of U St NW,2013/03/03 05:00:00+00,0159-0200,2013/03/03 05:00:00+00,2013,3,3D,Ward 2,Sexual Orientation,,Simple Assault,802845,397117.19,138792.61,38.9169968,-77.03324151,,{5AD5F647-5B6B-493D-BBBE-082747C77948},,,MPD,2024/02/16 21:02:52+00,4175,
-77.0396554650008,38.9246640795471,13031810,1700 block of Columbia Rd NW,2013/03/11 04:00:00+00,2034,2013/03/11 04:00:00+00,2013,3,3D,Ward 1,Sexual Orientation,,Threats,800952,396561.52,139643.1,38.92465629,-77.03965317,,{E998308F-BD0A-4E15-A11F-999AB2F33A0C},,,MPD,2024/02/16 21:02:52+00,4176,
-76.9672354710177,38.8676581070057,13032136,2800 block of Texas Ave SE Apt B5,2013/03/12 04:00:00+00,1400,2013/03/12 04:00:00+00,2013,3,6D,Ward 7,Sexual Orientation,,Threats,801310,402843.60777659,133314.74866515,38.86765032,-76.9672332,,{BDDB79FD-4373-4707-A3A1-8EBB84A72D1E},,,MPD,2024/02/16 21:02:52+00,4177,
-77.0158203240768,38.9165114363281,13033386,1900 block of 3rd St NW,2013/03/14 04:00:00+00,2249-2250,2013/03/14 04:00:00+00,2013,3,3D,Ward 1,Sexual Orientation,,Simple Assault,805459,398628.2,138737.46,38.91650365,-77.01581803,,{6585B27C-73B7-4795-AD5F-BFAC5FAA316E},,,MPD,2024/02/16 21:02:52+00,4178,
-76.9943615210471,38.900209966604,13036237,800 block of H St NE,2013/03/20 04:00:00+00,1737,2013/03/20 04:00:00+00,2013,3,1D,Ward 6,Gender Identity/Expression,,Simple Assault,812904,400489.3,136927.76,38.90020218,-76.99435924,,{EB0A8037-0238-4ADA-A38E-2AD086D3D5CC},,,MPD,2024/02/16 21:02:52+00,4179,
-77.0239575879362,38.9169979424866,13037458,9th St NW and U St NW,2013/03/23 04:00:00+00,0210-0215,2013/03/23 04:00:00+00,2013,3,3D,Ward 1,Sexual Orientation,,Simple Assault,900954,397922.51999603,138791.61999823,38.91699015,-77.0239553,,{15EBFD1C-D383-4FEF-80E2-D579EB3869BF},,,MPD,2024/02/16 21:02:52+00,4180,
-77.0396554650008,38.9246640795471,13044090,1700 block of Columbia Rd NW,2013/04/06 04:00:00+00,0124,2013/04/06 04:00:00+00,2013,4,3D,Ward 1,Race,Asian,Simple Assault,800952,396561.52,139643.1,38.92465629,-77.03965317,,{CB4A4F7F-1605-4720-B5E9-001D45641E30},,,MPD,2024/02/16 21:02:52+00,4181,
-76.9411424281998,38.8841459476645,13046481,4400 block of Texas Ave SE,2013/04/10 04:00:00+00,1904,2013/04/10 04:00:00+00,2013,4,6D,Ward 7,Ethnicity/National Origin,Latino/Hispanic,ADW,804930,405106.86461069,135146.15903485,38.88413816,-76.94114016,,{DE7A37DF-592F-4E64-A67B-C35CACA95696},,,MPD,2024/02/16 21:02:52+00,4182,
-76.9937982915684,38.8615099878848,13046217,Howard Rd SE and Martin Luther King Jr Ave SE,2013/04/10 04:00:00+00,1044,2013/04/10 04:00:00+00,2013,4,7D,Ward 8,Sexual Orientation,,Simple Assault,902586,400538.44825445,132631.77064851,38.86150221,-76.99379601,,{83F7EBF1-7BDD-41C1-B4B9-3440476A2D37},,,MPD,2024/02/16 21:02:52+00,4183,
-77.0319524771756,38.9080463335711,13053916,1300 block of 14th St NW,2013/04/25 04:00:00+00,5300,2013/04/25 04:00:00+00,2013,4,3D,Ward 2,Sexual Orientation,,Robbery,802156,397228.83,137798.13,38.90803854,-77.03195018,,{7B2DAC5B-4BCC-4C33-9254-9CAB788A621E},,,MPD,2024/02/16 21:02:52+00,4184,
-77.0270417110095,38.9105556842231,13059479,11th St NW and Rhode Island Ave NW,2013/05/03 04:00:00+00,1800,2013/05/05 04:00:00+00,2013,5,3D,Ward 2,Sexual Orientation,,Damage/Defacing/Destruction of Property,906102,397654.84319578,138076.55081357,38.9105479,-77.02703942,,{4E47C0BF-F99F-42AA-B1AA-157F5600D01B},,,MPD,2024/02/16 21:02:52+00,4185,
-76.9799399046093,38.9015545898341,13064348,1600 block of Maryland Ave NE,2013/05/12 04:00:00+00,1800-1900,2013/05/14 04:00:00+00,2013,5,5D,Ward 5,Sexual Orientation,,Simple Assault,809645,401740.25,137077.2,38.9015468,-76.97993763,,{CA2E4F3B-6C6B-4E2E-A0CE-CB4AE8F14BEA},,,MPD,2024/02/16 21:02:52+00,4186,
-76.9804120159451,38.8964380103393,13067771,500 block of 17th St NE,2013/05/21 04:00:00+00,0115-0118,2013/05/21 04:00:00+00,2013,5,5D,Ward 7,Race,White,Simple Assault,802353,401699.42,136509.21,38.89643022,-76.98040974,,{785AE195-BDB0-42FE-9E99-FB9FE302CDD1},,,MPD,2024/02/16 21:02:52+00,4187,
-77.0390641962061,38.9143243383526,13073757,1800 block of New Hampshire Ave NW,2013/06/01 04:00:00+00,0215,2013/06/01 04:00:00+00,2013,6,3D,Ward 2,Sexual Orientation,,Robbery,813547,396612.3,138495.28,38.91431655,-77.0390619,,{E498938F-862E-4BF2-8FB1-BB04A6BD1840},,,MPD,2024/02/16 21:02:52+00,4188,
-76.9316644707118,38.9078734347425,13075701,1300 block of 49th St NE,2013/06/04 04:00:00+00,1800,2013/06/04 04:00:00+00,2013,6,6D,Ward 7,Sexual Orientation,,Simple Assault,801552,405927.23,137780.67,38.90786564,-76.93166221,,{8FD6C898-B6C7-433E-B25B-AE3480199FB5},,,MPD,2024/02/16 21:02:52+00,4189,
-76.926016714176,38.8943656154204,13077377,5200 block of Cloud Pl NE,2013/06/07 04:00:00+00,1957,2013/06/07 04:00:00+00,2013,6,6D,Ward 7,Race,White,Threats,807563,406418.29910791,136281.5760599,38.89435783,-76.92601445,,{620901FB-7FC4-40D7-8CF3-3C76BA433BE3},,,MPD,2024/02/16 21:02:52+00,4190,
-77.0058867726756,38.8337546316613,13080496,3800 block of 1st St SE,2013/06/13 04:00:00+00,1825-1830,2013/06/13 04:00:00+00,2013,6,7D,Ward 8,Sexual Orientation,,Simple Assault,811521,399489.08239748,129550.72997365,38.83374686,-77.00588449,,{457E81D7-0C75-4ADA-9B56-30C217C96322},,,MPD,2024/02/16 21:02:52+00,4191,
-77.0192055904926,38.9012292607558,13081164,500 block of Massachusetts Ave NW,2013/06/14 04:00:00+00,2123-2124,2013/06/14 04:00:00+00,2013,6,1D,Ward 2,Sexual Orientation,,Simple Assault,806791,398334.26,137041.07,38.90122147,-77.0192033,,{3B28AD67-26FE-45E8-8030-FA713BCD93ED},,,MPD,2024/02/16 21:02:52+00,4192,
-76.9822293701577,38.8662546092758,13081519,16th St SE and Good Hope Rd SE,2013/06/15 04:00:00+00,1248,2013/06/15 04:00:00+00,2013,6,7D,Ward 8,Sexual Orientation,,Simple Assault,901851,401542.41999938,133158.590009,38.86624683,-76.98222709,,{725785D3-9A19-4982-8561-96D1008AD137},,,MPD,2024/02/16 21:02:52+00,4193,
-76.9846742533237,38.9054902461732,13084477,1500 block of Tinidad Ave NE,2013/06/20 04:00:00+00,1841-1855,2013/06/20 04:00:00+00,2013,6,5D,Ward 5,Race,White,Threats,800035,401329.51,137514.01,38.90548246,-76.98467197,,{4BF7437C-0A9C-404D-9787-185A2E1CA2A6},,,MPD,2024/02/16 21:02:52+00,4194,
-77.0319555858751,38.914470001592,13086807,1800 block of 14th St NW,2013/06/24 04:00:00+00,2100,2013/06/24 04:00:00+00,2013,6,3D,Ward 2,Gender Identity/Expression,,Simple Assault,810471,397228.81,138511.21,38.91446221,-77.03195329,,{5D925B48-C7D6-4826-B494-5F6F533A5981},,,MPD,2024/02/16 21:02:52+00,4195,
-76.9137675439217,38.8962993655398,13088119,500 block of Eastern Ave NE,2013/06/27 04:00:00+00,0535-0536,2013/06/27 04:00:00+00,2013,6,6D,Ward 7,Gender Identity/Expression,,ADW,804552,407480.72,136497.17,38.89629157,-76.91376529,,{3704EFF6-E2A7-40AE-94BE-29E1179A8A18},,,MPD,2024/02/16 21:02:52+00,4196,
-76.9739743126414,38.8635423389654,13093081,2300 block of Good Hope Rd SE,2013/07/03 04:00:00+00,2030-2040,2013/07/03 04:00:00+00,2013,7,7D,Ward 8,Sexual Orientation,,ADW,815940,402258.92,132857.68,38.86353456,-76.97397204,,{F10AAA1A-02A4-4A4B-9BA5-4AE02A7553E5},,,MPD,2024/02/16 21:02:52+00,4197,
-77.0169191262798,38.9025278086911,13095740,400 block of K St NW,2013/07/07 04:00:00+00,1810-1200,2013/07/08 04:00:00+00,2013,7,1D,Ward 6,Race,Black,Threats,816529,398532.62,137185.18,38.90252002,-77.01691684,,{07A85238-2F76-4590-93C0-FEEB02596738},,,MPD,2024/02/16 21:02:52+00,4198,
-77.0300204822679,38.8998355507956,13095260,1300 block of H St NW,2013/07/09 04:00:00+00,1345,2013/07/09 04:00:00+00,2013,7,2D,Ward 2,Race,Multiple,Threats,803708,397396.1,136886.61,38.89982776,-77.03001819,,{765B6CF8-ED11-4C39-B123-60B796895C1A},,,MPD,2024/02/16 21:02:52+00,4199,
-77.0319537815252,38.9191926208164,13096591,14th St NW and W St NW,2013/07/11 04:00:00+00,2155-2215,2013/07/11 04:00:00+00,2013,7,3D,Ward 1,Sexual Orientation,,ADW,905984,397229.15001138,139035.45999846,38.91918483,-77.03195149,,{A3274707-A55D-405D-8308-B2B64D7065FB},,,MPD,2024/02/16 21:02:52+00,4200,
-77.0307884077483,38.9170078728893,13097871,1300 block of U Street NW,2013/07/14 04:00:00+00,0219,2013/07/14 04:00:00+00,2013,7,3D,Ward 1,Race,White,Simple Assault,804518,397330.13,138792.9,38.91700008,-77.03078611,,{F49608F0-51EB-43E3-BEAD-94708760D34F},,,MPD,2024/02/16 21:02:52+00,4201,
-77.0413007310602,38.9216247320086,13097888,2300 block of Champlain St NW,2013/07/14 04:00:00+00,0248,2013/07/14 04:00:00+00,2013,7,3D,Ward 1,Race,Black,Simple Assault,813215,396418.7,139305.77,38.92161694,-77.04129843,,{19EEFD3B-CFDB-4BA5-9B7A-E871CA4E6110},,,MPD,2024/02/16 21:02:52+00,4202,
-77.0416831324842,38.9182889923559,13101721,2100 block of 18th St NW,2013/07/21 04:00:00+00,0418,2013/07/21 04:00:00+00,2013,7,3D,Ward 1,Race,White,ADW,813741,396385.37,138935.49,38.9182812,-77.04168083,,{004AACA0-F5CC-4799-A1F1-0EAC7155412F},,,MPD,2024/02/16 21:02:52+00,4203,
-77.020914492172,38.8998196995033,13104935,600 block of H St NW,2013/07/26 04:00:00+00,2340-2349,2013/07/26 04:00:00+00,2013,7,1D,Ward 2,Gender Identity/Expression,,Simple Assault,807858,398185.99,136884.63,38.89981191,-77.0209122,,{4F93ABEC-6660-430E-8EEF-7304CBAE01FC},,,MPD,2024/02/16 21:02:52+00,4204,
-77.0396125289498,38.9231455613056,13105009,1700 block of Euclid St NW,2013/07/27 04:00:00+00,0126,2013/07/27 04:00:00+00,2013,7,3D,Ward 1,Race,White,Robbery,803896,396565.17,139474.53,38.92313777,-77.03961023,,{1F59F9FB-33CE-4CE3-8616-1016D61EDD10},,,MPD,2024/02/16 21:02:52+00,4205,
-77.0058879300899,38.9046946742164,13108311,1st ST NE and Pierce St NE,2013/08/01 04:00:00+00,2100-2105,2013/08/02 04:00:00+00,2013,8,1D,Ward 6,Sexual Orientation,,Damage/Defacing/Destruction of Property,901051,399489.49001348,137425.59999696,38.90468689,-77.00588564,,{F2055745-4EAF-4C4B-996D-520DD1A6D649},,,MPD,2024/02/16 21:02:52+00,4206,
-77.0255165960402,38.9418803715162,13109824,Georgia Ave NW and Upshur St NW,2013/08/04 04:00:00+00,1100-1101,2013/08/04 04:00:00+00,2013,8,4D,Ward 4,Gender Identity/Expression,,ADW,901333,397788.0900119,141553.82000079,38.94187258,-77.0255143,,{7D58B148-E087-4BA0-A6E9-6834590E2133},,,MPD,2024/02/16 21:02:52+00,4207,
-77.0332436347909,38.9181221614116,13120264,1400 block of V St NW,2013/08/24 04:00:00+00,0051,2013/08/24 04:00:00+00,2013,8,3D,Ward 1,Gender Identity/Expression,,ADW,811679,397117.25,138916.67,38.91811437,-77.03324134,,{57E90DCE-6F7A-426A-9D0C-EBB61F6C3FD9},,,MPD,2024/02/16 21:02:52+00,4208,
-76.9372536380768,38.8891016963331,13125881,4500 block of Benning Rd SE,2013/09/03 04:00:00+00,2133,2013/09/03 04:00:00+00,2013,9,6D,Ward 7,Ethnicity/National Origin,Asian,Simple Assault,803852,405443.89,135696.51,38.88909391,-76.93725137,,{57B396CF-C7DA-4280-B253-3C04A23F2179},,,MPD,2024/02/16 21:02:52+00,4209,
-77.020914492172,38.8998196995033,13128491,600 block of H St NW,2013/09/08 04:00:00+00,1555-1559,2013/09/08 04:00:00+00,2013,9,1D,Ward 2,Race,Asian,Simple Assault,807858,398185.99,136884.63,38.89981191,-77.0209122,,{63C7A25B-6BB3-4BB3-9614-7BEE62FCEE80},,,MPD,2024/02/16 21:02:52+00,4210,
-77.0035132401417,38.9172839282845,13131421,2000 block of 2nd St NE,2013/09/14 04:00:00+00,0150,2013/09/14 04:00:00+00,2013,9,5D,Ward 5,Sexual Orientation,,Simple Assault,806269,399695.52,138823.1,38.91727614,-77.00351095,,{E1CF4933-FFA5-4A34-872A-91CB7A0580AF},,,MPD,2024/02/16 21:02:52+00,4211,
-77.0519054257246,38.9242076033088,13133719,2600 block of Connecticut Ave NW,2013/09/17 04:00:00+00,13-133719,2013/09/17 04:00:00+00,2013,9,2D,Ward 3,Religion,Jewish,Damage/Defacing/Destruction of Property,807493,395499.25,139592.96,38.92419981,-77.05190312,,{261EFD2F-18F3-4E73-AB6A-C8C93AB1F2FD},,,MPD,2024/02/16 21:02:52+00,4212,
-76.9925446566259,38.8584308303037,13145014,2600 block of Stanton Rd SE,2013/10/08 04:00:00+00,2230-2238,2013/10/08 04:00:00+00,2013,10,7D,Ward 8,Sexual Orientation,,Robbery,811275,400647.28,132289.97,38.85842305,-76.99254238,,{6982854A-A12B-46D8-9530-076A582580F9},,,MPD,2024/02/16 21:02:52+00,4213,
-76.9256200185062,38.8818553185762,13149438,5300 block of E St SE,2013/10/17 04:00:00+00,1643,2013/10/17 04:00:00+00,2013,10,6D,Ward 7,Sexual Orientation,,Damage/Defacing/Destruction of Property,815121,406453.84419594,134892.86447461,38.88184753,-76.92561776,,{51DAF188-AA22-4B4A-9595-3F05DCCEFE15},,,MPD,2024/02/16 21:02:52+00,4214,
-77.0259414922037,38.9268615487222,13150239,Harvard St NW and Sherman Ave NW,2013/10/19 04:00:00+00,0030,2013/10/19 04:00:00+00,2013,10,3D,Ward 1,Sexual Orientation,,ADW,905903,397750.78066787,139886.61049525,38.92685376,-77.0259392,,{6DC07A0B-E99B-4C0C-A7A9-DCFE10CF1FD2},,,MPD,2024/02/16 21:02:52+00,4215,
-76.9908890922677,38.8825277431881,13155414,1100 block of Pennsylvania Ave SE,2013/10/26 04:00:00+00,1500,2013/10/26 04:00:00+00,2013,10,1D,Ward 6,Gender Identity/Expression,,Simple Assault,800670,400790.70681469,134964.91916268,38.88251996,-76.99088681,,{73FF6BEF-7E57-40AF-A42D-BE652131191B},,,MPD,2024/02/16 21:02:52+00,4216,
-77.021921360622,38.9029466268509,13154097,7th St NW and Mount Vernon Pl NW,2013/10/26 04:00:00+00,0228,2013/10/26 04:00:00+00,2013,10,3D,Ward 6,Gender Identity/Expression,,Simple Assault,904395,398098.73350019,137231.76447678,38.90293884,-77.02191907,,{561EE6C6-0F64-4959-94A3-92FDFD4A3D87},,,MPD,2024/02/16 21:02:52+00,4217,
-77.0365007496088,38.9186374567917,13180758,2100 block of 16th St NW,2013/12/18 05:00:00+00,1951,2013/12/18 05:00:00+00,2013,12,3D,Ward 1,Race,Black,Simple Assault,805292,396834.81,138973.98,38.91862967,-77.03649845,,{068F94F0-FB0E-4DD4-9672-15CD6767C2B8},,,MPD,2024/02/16 21:02:52+00,4218,
-76.9997189518702,38.8330243738162,13180997,400 block of Xenia St SE,2013/12/19 05:00:00+00,0815-0820,2013/12/19 05:00:00+00,2013,12,7D,Ward 8,Race,Unspecified,ADW,801020,400024.6,129469.65,38.8330166,-76.99971667,,{D68D11B6-8B69-452B-BFCE-AD17482EA6D9},,,MPD,2024/02/16 21:02:52+00,4219,
-76.9713563317619,38.8516665262436,14001090,2400 block of Alabama Ave SE,2014/01/03 05:00:00+00,0242,2014/01/01 05:00:00+00,2014,1,7D,Ward 8,Sexual Orientation,,Robbery,806892,402486.54336026,131539.4476395,38.85165875,-76.97135406,,{B8B20EBA-16FA-4844-8C82-C46BAA8ABD22},,,MPD,2024/02/16 21:02:52+00,4220,
-77.0073516864204,38.9542902092414,14012327,5300 block of RockCreek Church Rd NE,2014/01/26 05:00:00+00,0129-0140,2014/01/26 05:00:00+00,2014,1,4D,Ward 5,Sexual Orientation,,Simple Assault,812346,399362.97,142931.14,38.95428241,-77.0073494,,{7D14858E-0A0C-43B4-8D41-EBC7014FF942},,,MPD,2024/02/16 21:02:52+00,4221,
-76.996173594083,38.890377856885,14016376,Unit block of 7th St NE,2014/02/03 05:00:00+00,1525-1558,2014/02/03 05:00:00+00,2014,2,1D,Ward 6,Political Affiliation,,Threats,808382,400332.16,135836.31,38.89037007,-76.99617131,,{FF67A06E-D765-4677-8652-CCCCC9054645},,,MPD,2024/02/16 21:02:52+00,4222,
-77.0718981328182,38.922553804513,14017169,3600 block of Calvert St NW,2014/02/04 05:00:00+00,0900-1200,2014/02/04 05:00:00+00,2014,2,2D,Ward 3,Sexual Orientation,,Damage/Defacing/Destruction of Property,804152,393765.45,139410.55,38.92254601,-77.07189583,,{CF98D5D4-A55B-40F8-B7A4-09EA05D29036},,,MPD,2024/02/16 21:02:52+00,4223,
-77.0147886703067,38.8954446425989,14018072,400 block of 2nd St NW,2014/02/07 05:00:00+00,0650-0653,2014/02/07 05:00:00+00,2014,2,1D,Ward 6,Gender Identity/Expression,,Simple Assault,279729,398717.29,136398.86,38.89543686,-77.01478638,,{FD13563C-B2B7-47D3-9469-E62689CDB32F},,,MPD,2024/02/16 21:02:52+00,4224,
-77.0403007981408,38.9042457411316,14020570,1100 block of Connecticut Ave NW,2014/02/12 05:00:00+00,1000-1005,2014/02/12 05:00:00+00,2014,2,2D,Ward 2,Sexual Orientation,,Simple Assault,807498,396504.56,137376.52,38.90423795,-77.0402985,,{1B44D516-44D0-4383-B291-3AA3E0D86C82},,,MPD,2024/02/16 21:02:52+00,4225,
-77.0105973688667,38.922380232145,14023245,Unit block of Channing St NW,2014/02/18 05:00:00+00,2135-2140,2014/02/18 05:00:00+00,2014,2,3D,Ward 5,Sexual Orientation,,Threats,811709,399081.23,139388.88,38.92237244,-77.01059508,,{39F4F94A-A5C6-4805-B73E-F98C5DF32F49},,,MPD,2024/02/16 21:02:52+00,4226,
-77.0436092614514,38.9099352176321,14024251,1300 block of Connecticut Ave NW,2014/02/20 05:00:00+00,2233,2014/02/20 05:00:00+00,2014,2,2D,Ward 2,Religion,Muslim,Damage/Defacing/Destruction of Property,800193,396217.89,138008.23,38.90992743,-77.04360696,,{6E74E846-0A24-4D04-94DD-27943FFA3429},,,MPD,2024/02/16 21:02:52+00,4227,
-77.0514187809942,38.9029852354212,14024321,24th St NW and Pennsylvania Ave NW,2014/02/21 05:00:00+00,0150-0154,2014/02/21 05:00:00+00,2014,2,2D,Ward 2,Sexual Orientation,,Simple Assault,900099,395540.12207381,137237.07820479,38.90297745,-77.05141648,,{DC409686-E221-4576-A880-E6B12B1EFF94},,,MPD,2024/02/16 21:02:52+00,4228,
-77.0145484059231,38.9421966407002,14025713,200 block of Upshur St NW,2014/02/23 05:00:00+00,1700-1711,2014/02/23 05:00:00+00,2014,2,4D,Ward 4,Disability,,Simple Assault,800327,398738.96,141588.72,38.94218884,-77.01454612,,{20885A1E-84C1-48A7-B7EB-F07C4CAD8420},,,MPD,2024/02/16 21:02:52+00,4229,
-76.9975691902957,38.8607798451617,14027299,1100 block of Summer Rd SE,2014/02/26 05:00:00+00,2019,2014/02/26 05:00:00+00,2014,2,7D,Ward 8,Sexual Orientation,,Simple Assault,809887,400211.17174215,132550.70396044,38.86077206,-76.99756691,,{99F9F174-2307-4F5A-806A-2E82E4EC6C23},,,MPD,2024/02/16 21:02:52+00,4230,
-77.0401601076432,38.9484059132861,14029582,4700 block of Blagden Terrace NW,2014/03/03 05:00:00+00,1700,2014/03/03 05:00:00+00,2014,3,4D,Ward 4,Sexual Orientation,,Sexual Abuse,807557,396518.92,142278.67,38.94839812,-77.04015781,,{A7F466BB-573C-4A36-9FF6-968B860B1966},,,MPD,2024/02/16 21:02:52+00,4231,
-77.0279521294854,38.9619873611676,14036236,5900 block of Georgia Ave NW,2014/03/16 04:00:00+00,1601-1615,2014/03/16 04:00:00+00,2014,3,4D,Ward 4,Sexual Orientation,,Simple Assault,816437,397577.63,143785.94,38.96197956,-77.02794983,,{B79783CC-BA4E-48B9-B996-AD2FB8B23A9F},,,MPD,2024/02/16 21:02:52+00,4232,
-76.983790075875,38.8468592802987,14037147,1400 block of Congress Pl SE,2014/03/18 04:00:00+00,1920-1929,2014/03/18 04:00:00+00,2014,3,7D,Ward 8,Gender Identity/Expression,,Threats,801783,401407.35657526,131005.544375,38.8468515,-76.9837878,,{F81D74EF-1118-4278-AF84-5C1DBDBA7167},,,MPD,2024/02/16 21:02:52+00,4233,
-76.9280145346192,38.8814805329844,14051643,5200 block of F St SE,2014/04/14 04:00:00+00,1845-1850,2014/04/14 04:00:00+00,2014,4,6D,Ward 7,Gender Identity/Expression,,ADW,810329,406246.11472375,134851.09394657,38.88147275,-76.92801227,,{A5328881-0B5C-4656-BC27-05A7788DB7FD},,,MPD,2024/02/16 21:02:52+00,4234,
-76.997040713199,38.9328153666832,14052101,600 block of Michigan Ave NE,2014/04/15 04:00:00+00,1455-1500,2014/04/15 04:00:00+00,2014,4,5D,Ward 5,Gender Identity/Expression,,Robbery,814865,400256.78,140547.22,38.93280757,-76.99703843,,{E2B9220C-7DA4-4C04-9DAE-55FE49A7F97B},,,MPD,2024/02/16 21:02:52+00,4235,
-77.0398504645378,38.9170117998201,14054249,1700 block of U St NW,2014/04/19 04:00:00+00,1900-1901,2014/04/19 04:00:00+00,2014,4,3D,Ward 2,Sexual Orientation,,Simple Assault,808175,396544.24,138793.64,38.91700401,-77.03984817,,{97563410-CF31-4781-8B22-22C80F00109F},,,MPD,2024/02/16 21:02:52+00,4236,
-77.0518016668584,38.8980561578198,14055712,2400 block of Virginia Ave NW,2014/04/22 04:00:00+00,1725,2014/04/22 04:00:00+00,2014,4,2D,Ward 2,Homelessness,,Simple Assault,804406,395506.6,136689.93,38.89804837,-77.05179937,,{A7FA389F-846C-4A59-8552-9C0A84C252DA},,,MPD,2024/02/16 21:02:52+00,4237,
-77.0327957447313,38.9025305560349,14067414,1400 block of K St NW,2014/05/12 04:00:00+00,1700-1910,2014/05/13 04:00:00+00,2014,5,2D,Ward 2,Religion,Jewish,Damage/Defacing/Destruction of Property,805270,397155.47,137185.86,38.90252277,-77.03279345,,{23D388FE-C933-47DA-9D6C-3AFF5266A7AA},,,MPD,2024/02/16 21:02:52+00,4238,
-77.0327378468684,38.9316144252323,14068447,3400 block of 14th St NW,2014/05/15 04:00:00+00,0150-0153,2014/05/15 04:00:00+00,2014,5,4D,Ward 1,Gender Identity/Expression,,ADW,805082,397161.65,140414.41,38.93160663,-77.03273555,,{214A3B60-8B20-48DA-B38C-09E53C133A91},,,MPD,2024/02/16 21:02:52+00,4239,
-77.0532984533546,38.9062416499669,14073281,1200 block of 25th St NW,2014/05/23 04:00:00+00,0439,2014/05/23 04:00:00+00,2014,5,2D,Ward 2,Race,White,Damage/Defacing/Destruction of Property,800476,395377.29,137598.66,38.90623386,-77.05329615,,{37A248B9-3CDE-4F53-8A51-A18AC71B3AF1},,,MPD,2024/02/16 21:02:52+00,4240,
-77.0072755105189,38.8251589440866,14074002,Unit block of Forrester St SW,2014/05/24 04:00:00+00,1248,2014/05/24 04:00:00+00,2014,5,7D,Ward 8,Sexual Orientation,,Simple Assault,810043,399368.43,128596.56,38.82515117,-77.00727323,,{8D8E491B-8FC8-425C-A609-F5DBA0E1665F},,,MPD,2024/02/16 21:02:52+00,4241,
-77.0307876911204,38.9118758233668,14074059,1300 block of Corcoran St NW,2014/05/24 04:00:00+00,1520-1522,2014/05/24 04:00:00+00,2014,5,3D,Ward 2,Race,Black,Damage/Defacing/Destruction of Property,811946,397330,138223.2,38.91186803,-77.0307854,,{842286D1-D197-473E-BB81-5646E9254463},,,MPD,2024/02/16 21:02:52+00,4242,
-76.9815032941509,38.8672737137364,14082778,1600 block of T St SE,2014/06/08 04:00:00+00,1500,2014/06/08 04:00:00+00,2014,6,6D,Ward 8,Sexual Orientation,,Threats,807225,401605.40950344,133271.73055311,38.86726593,-76.98150102,,{897FE22A-E39F-49FF-B0AF-F746D163C3C5},,,MPD,2024/02/16 21:02:52+00,4243,
-77.0071038514963,38.8846456709948,14083820,400 block of New Jersey Ave SE,2014/06/10 04:00:00+00,1342-1722,2014/06/10 04:00:00+00,2014,6,1D,Ward 6,Religion,Muslim,Threats,812200,399383.85,135200.01,38.88463789,-77.00710157,,{24B1A804-DA1A-47AE-B94D-968B9E0D295C},,,MPD,2024/02/16 21:02:52+00,4244,
-77.0273354190814,38.9511777691516,14088758,5000 block of Georgia Ave NW,2014/06/18 04:00:00+00,2335-2338,2014/06/18 04:00:00+00,2014,6,4D,Ward 4,Race,Unspecified,ADW,804988,397630.72,142585.96,38.95116997,-77.02733312,,{C7DCE359-9F56-404C-B963-CA3FB46EF683},,,MPD,2024/02/16 21:02:52+00,4245,
-77.0327378468684,38.9316144252323,14095037,3400 block of 14th St NW,2014/06/29 04:00:00+00,0226-0233,2014/06/29 04:00:00+00,2014,6,4D,Ward 1,Sexual Orientation,,Threats,805082,397161.65,140414.41,38.93160663,-77.03273555,,{5D8F9512-D9DD-4737-8F32-35B7CEAFFD71},,,MPD,2024/02/16 21:02:52+00,4246,
-77.0175522300509,38.9037415911665,14096982,400 block of L St NW,2014/07/02 04:00:00+00,1500-1504,2014/07/02 04:00:00+00,2014,7,1D,Ward 6,Sexual Orientation,,Simple Assault,808638,398477.73,137319.93,38.9037338,-77.01754994,,{5C8D77A7-D114-474B-A626-B48E01BDCF2C},,,MPD,2024/02/16 21:02:52+00,4247,
-77.0244008704367,38.9369769444542,14098533,3700 block of Georgia Ave NW,2014/07/05 04:00:00+00,0305-0309,2014/07/05 04:00:00+00,2014,7,4D,Ward 4,Sexual Orientation,,ADW,809816,397884.67,141009.47,38.93696915,-77.02439858,,{9608BFEB-609D-4BB8-82E6-D29BFAC9D615},,,MPD,2024/02/16 21:02:52+00,4248,
-77.0453028117291,38.9076587945028,14100355,1300 block of New Hampshire Ave NW,2014/07/08 04:00:00+00,1155,2014/07/08 04:00:00+00,2014,7,2D,Ward 2,Religion,Jewish,Damage/Defacing/Destruction of Property,805753,396070.88,137755.6,38.90765101,-77.04530051,,{49635B79-FB21-4654-9F4C-0244AA816238},,,MPD,2024/02/16 21:02:52+00,4249,
-76.9108239931592,38.8940164231268,14104831,63rd St NE and Eastern Ave NE,2014/07/16 04:00:00+00,0509,2014/07/16 04:00:00+00,2014,7,6D,Ward 7,Gender Identity/Expression,,Threats,903707,407736.31562113,136243.99081187,38.89400863,-76.91082174,,{B47E9C37-E81F-470B-919D-BE9CCEA59028},,,MPD,2024/02/16 21:02:52+00,4250,
-77.0246367626532,38.9170041971694,14107657,900 block of U St NW,2014/07/20 04:00:00+00,1844-1845,2014/07/20 04:00:00+00,2014,7,3D,Ward 1,Gender Identity/Expression,,Simple Assault,813703,397863.62,138792.33,38.91699641,-77.02463447,,{5E6B3CD8-A05C-4555-A093-BE00D69820AC},,,MPD,2024/02/16 21:02:52+00,4251,
-76.9719094408153,38.8477897692808,14110263,2200 block of Savannah St SE,2014/07/25 04:00:00+00,0817,2014/07/25 04:00:00+00,2014,7,7D,Ward 8,Gender Identity/Expression,,ADW,811092,402438.66448022,131109.0853991,38.84778199,-76.97190717,,{87041491-B94B-4273-9AD9-A7D4115F24D1},,,MPD,2024/02/16 21:02:52+00,4252,
-76.9426136209183,38.8924226413342,14111571,100 block of 42nd St NE,2014/07/27 04:00:00+00,0333,2014/07/27 04:00:00+00,2014,7,6D,Ward 7,Gender Identity/Expression,,Threats,811325,404978.64179457,136064.8548117,38.89241485,-76.94261136,,{C802E18D-A50C-4FC9-8281-2E884DEAA96B},,,MPD,2024/02/16 21:02:52+00,4253,
-77.0384868410645,38.9115051897783,14112064,1600 block of 17th St NW,2014/07/28 04:00:00+00,0255-0257,2014/07/28 04:00:00+00,2014,7,3D,Ward 2,Race,Black,Simple Assault,808622,396662.24,138182.31,38.9114974,-77.03848454,,{2C142CE7-9EDA-4F89-9399-AE500FFC81E1},,,MPD,2024/02/16 21:02:52+00,4254,
-77.0308500517259,38.9616800814931,14115423,1300 block of Missouri Ave NW,2014/08/02 04:00:00+00,1541-1548,2014/08/02 04:00:00+00,2014,8,4D,Ward 4,Gender Identity/Expression,,Threats,808087,397326.46,143751.91,38.96167228,-77.03084775,,{C6897118-1AC7-4880-8D2E-39D4DA4B945F},,,MPD,2024/02/16 21:02:52+00,4255,
-77.0121183009141,38.9576687226588,14115367,100 block of Longfellow St NW,2014/08/02 04:00:00+00,1311,2014/08/02 04:00:00+00,2014,8,4D,Ward 4,Race,Black,Simple Assault,808616,398949.86,143306.23,38.95766092,-77.01211601,,{4D17C276-8BF8-45F3-9FC0-7E157CE4F87C},,,MPD,2024/02/16 21:02:52+00,4256,
-76.9903992090408,38.8638133853439,14115487,Mapleview Pl SE and Martin Luther King Jr Ave SE,2014/08/02 04:00:00+00,1620-1627,2014/08/02 04:00:00+00,2014,8,7D,Ward 8,Gender Identity/Expression,,Robbery,901523,400833.43001473,132887.49000875,38.8638056,-76.99039693,,{BC397553-115F-4F29-95D3-388D64FD9FE1},,,MPD,2024/02/16 21:02:52+00,4257,
-77.0319558970722,38.9159364685239,14115840,1900 block of 14th St NW,2014/08/03 04:00:00+00,0420-0421,2014/08/03 04:00:00+00,2014,8,3D,Ward 2,Race,Black,Simple Assault,810664,397228.84,138674,38.91592868,-77.0319536,,{89F1C0FE-DB96-44F6-8D0C-9A9708CAA548},,,MPD,2024/02/16 21:02:52+00,4258,
-76.9723369748309,38.8995621895693,14120697,600 block of 24th St NE,2014/08/11 04:00:00+00,1830-1839,2014/08/11 04:00:00+00,2014,8,5D,Ward 5,Sexual Orientation,,Simple Assault,809840,402399.81,136856.2,38.8995544,-76.9723347,,{13651D31-51C9-49FC-8BB3-88C528BE933B},,,MPD,2024/02/16 21:02:52+00,4259,
-76.9860826586724,38.9066075479653,14121614,1200 block of Queen St NE,2014/08/11 04:00:00+00,1000,2014/08/13 04:00:00+00,2014,8,5D,Ward 5,Ethnicity/National Origin,Asian,Damage/Defacing/Destruction of Property,812799,401207.33,137638.02,38.90659976,-76.98608038,,{9DF2BD53-24EF-4F2B-878A-D9635D7EEF72},,,MPD,2024/02/16 21:02:52+00,4260,
-77.0136750122494,38.911128594686,14121846,100 block of Q St NW,2014/08/13 04:00:00+00,1935,2014/08/13 04:00:00+00,2014,8,3D,Ward 5,Gender Identity/Expression,,Simple Assault,807731,398814.16,138139.89,38.9111208,-77.01367272,,{95CC4D46-FD0B-4B1B-A209-104F39D5E20C},,,MPD,2024/02/16 21:02:52+00,4261,
-77.0396125289498,38.9231455613056,14122597,1700 block of Euclid St NW,2014/08/15 04:00:00+00,0144-0200,2014/08/15 04:00:00+00,2014,8,3D,Ward 1,Sexual Orientation,,Simple Assault,803896,396565.17,139474.53,38.92313777,-77.03961023,,{D0869EF5-A861-448E-8CA2-B11B0603B96F},,,MPD,2024/02/16 21:02:52+00,4262,
-77.0279521294854,38.9619873611676,14136225,5900 block of Georgia Ave NW,2014/09/05 04:00:00+00,0840-0845,2014/09/05 04:00:00+00,2014,9,4D,Ward 4,Sexual Orientation,,Simple Assault,816437,397577.63,143785.94,38.96197956,-77.02794983,,{38C83351-E238-4AEE-819C-7BD56029DC24},,,MPD,2024/02/16 21:02:52+00,4263,
-77.0660434162848,38.9051178650364,14139611,33rd St NW and M St NW,2014/09/13 04:00:00+00,0034-0035,2014/09/13 04:00:00+00,2014,9,2D,Ward 2,Sexual Orientation,,ADW,901272,394271.74956064,137474.63343701,38.90511008,-77.06604111,,{CE295AD2-E4A4-4E1A-B605-E8C7F021C0E3},,,MPD,2024/02/16 21:02:52+00,4264,
-76.9848973245787,38.9077465064782,14142139,1200 block of Meigs Pl NE,2014/09/17 04:00:00+00,1300-1510,2014/09/17 04:00:00+00,2014,9,5D,Ward 5,Sexual Orientation,,Damage/Defacing/Destruction of Property,801458,401310.12,137764.47,38.90773872,-76.98489505,,{F4D01855-E16A-4C0C-82D8-4B2083C7CF22},,,MPD,2024/02/16 21:02:52+00,4265,
-77.0327325598736,38.9366787151543,14143753,3600 block of 14th St NW,2014/09/20 04:00:00+00,0230-0317,2014/09/20 04:00:00+00,2014,9,4D,Ward 1,Gender Identity/Expression,,Simple Assault,805862,397162.31,140976.59,38.93667092,-77.03273026,,{309F75BF-EC03-4435-81DE-B8BFD9CF8770},,,MPD,2024/02/16 21:02:52+00,4266,
-76.9718671859922,38.8747586710105,14157939,2300 block of Fairlawn Ave SE,2014/10/13 04:00:00+00,2255-2345,2014/10/13 04:00:00+00,2014,10,6D,Ward 7,Race,White,Damage/Defacing/Destruction of Property,809587,402441.41,134102.83,38.87475089,-76.97186491,,{74C82B0B-E135-4DD3-8664-9CB89199DF2B},,,MPD,2024/02/16 21:02:52+00,4267,
-77.1061970018558,38.9357468348256,14159610,5200 block of Loughboro Rd NW,2014/10/16 04:00:00+00,1906-1908,2014/10/16 04:00:00+00,2014,10,2D,Ward 3,Race,Black,Simple Assault,809789,390792.88,140877.99,38.93573904,-77.10619468,,{78938628-D6EC-412F-935B-CD5D2520D324},,,MPD,2024/02/16 21:02:52+00,4268,
-77.0219166772032,38.8984541183497,14169001,7th St NW and G ST NW,2014/10/31 04:00:00+00,2350-2359,2014/11/01 04:00:00+00,2014,11,1D,Ward 2,Sexual Orientation,,Simple Assault,903249,398099.02002819,136733.05999632,38.89844633,-77.02191439,,{36B12509-647B-404A-9DB7-00498067913F},,,MPD,2024/02/16 21:02:52+00,4269,
-76.9820738201267,38.8662266594207,14169959,1600 block of Good Hope Rd SE,2014/11/02 04:00:00+00,1727-1945,2014/11/02 04:00:00+00,2014,11,7D,Ward 8,Sexual Orientation,,Simple Assault,800922,401555.92,133155.49,38.86621888,-76.98207154,,{89557E8F-8F99-413B-865F-247020387E1A},,,MPD,2024/02/16 21:02:52+00,4270,
-77.0163779969034,38.8812971316823,14169801,300 block of G St SW,2014/11/02 04:00:00+00,1000,2014/11/02 04:00:00+00,2014,11,1D,Ward 6,Race,White,Threats,805863,398579.13506863,134828.39999455,38.88128935,-77.01637571,,{2E33B167-5CD6-46E2-AB16-DA202FC3DE13},,,MPD,2024/02/16 21:02:52+00,4271,
-77.0219179703159,38.9049133809198,14170617,1100 block of 7th St NW,2014/11/02 04:00:00+00,2047,2014/11/03 05:00:00+00,2014,11,3D,Ward 2,Ethnicity/National Origin,Indian,Simple Assault,814320,398099.08,137450.09,38.90490559,-77.02191568,,{CAD96661-01ED-45FE-B800-FCD9E0F76241},,,MPD,2024/02/16 21:02:52+00,4272,
-77.0354087839786,38.9312582687328,14176146,1500 block of Park Rd NW,2014/11/13 05:00:00+00,1340-1509,2014/11/13 05:00:00+00,2014,11,3D,Ward 1,Race,Unspecified,ADW,811355,396930.05,140374.96,38.93125048,-77.03540649,,{F4765C20-E0D1-4046-BC9E-1E3D4D15D435},,,MPD,2024/02/16 21:02:52+00,4273,
-77.03752812299,38.9025328250662,14177125,1600 block of K St NW,2014/11/15 05:00:00+00,0323-0330,2014/11/15 05:00:00+00,2014,11,2D,Ward 2,Sexual Orientation,,Simple Assault,814017,396744.98,137186.27,38.90252504,-77.03752583,,{64C6B343-AC38-4C65-9A01-6572347D12E1},,,MPD,2024/02/16 21:02:52+00,4274,
-76.9937578770246,38.9215924980366,15005239,2300 block of Washington Pl NE,2015/01/11 05:00:00+00,1700-1710,2015/01/11 05:00:00+00,2015,1,5D,Ward 5,Sexual Orientation,,Damage/Defacing/Destruction of Property,815797,400541.5,139301.4,38.92158471,-76.99375559,,{8BCEE1C9-3225-42CF-8FAC-8AC9D65C1EE9},,,MPD,2024/02/16 21:02:52+00,4275,
-77.0767351621647,38.9507353644847,15007779,3900 block of Chesapeake St NW,2015/01/16 05:00:00+00,1622-1628,2015/01/16 05:00:00+00,2015,1,2D,Ward 3,Sexual Orientation,,Simple Assault,807279,393348.63,142539.29,38.95072757,-77.07673285,,{367D48A2-B946-4A65-ACC5-68EAAF838ECC},,,MPD,2024/02/16 21:02:52+00,4276,
-77.0175551063634,38.8948182680566,15008222,300 block of Indiana Ave NW,2015/01/18 05:00:00+00,1200-1220,2015/01/18 05:00:00+00,2015,1,1D,Ward 6,Sexual Orientation,,ADW,814307,398477.29,136329.37,38.89481048,-77.01755282,,{6FAC640E-B155-42D4-AB13-E6F88228E4A8},,,MPD,2024/02/16 21:02:52+00,4277,
-77.0617148988052,38.9431619864526,15011758,3000 block of Van Ness St NW,2015/01/23 05:00:00+00,1730-0930,2015/01/24 05:00:00+00,2015,1,2D,Ward 3,Race,Black,Damage/Defacing/Destruction of Property,812163,394650.05,141697.59,38.94315419,-77.06171259,,{9B1DED00-BBB6-4B0B-B8A2-EC8C6491FDED},,,MPD,2024/02/16 21:02:52+00,4278,
-77.0327321588336,38.9295246790098,15018054,3100 block of 14th St NW,2015/02/05 05:00:00+00,1820-1821,2015/02/05 05:00:00+00,2015,2,3D,Ward 1,Gender Identity/Expression,,Simple Assault,800897,397162.06,140182.43,38.92951689,-77.03272986,,{905131A9-016F-48A6-B9B9-52B9F98DC13A},,,MPD,2024/02/16 21:02:52+00,4279,
-77.0684761861626,38.9527097930098,15022921,4800 block of Connecticut Ave NW,2015/02/13 05:00:00+00,2100-1445,2015/02/15 05:00:00+00,2015,2,2D,Ward 3,Race,Black,Damage/Defacing/Destruction of Property,801847,394064.7,142757.9,38.952702,-77.06847388,,{40A9FA3A-8192-46B5-9D7C-421ACF71BF90},,,MPD,2024/02/16 21:02:52+00,4280,
-76.9925446566259,38.8584308303037,15026882,2600 block of Stanton Rd SE,2015/02/24 05:00:00+00,2025-2026,2015/02/24 05:00:00+00,2015,2,7D,Ward 8,Sexual Orientation,,Simple Assault,811275,400647.28,132289.97,38.85842305,-76.99254238,,{E58656EB-920A-4851-AC33-CF0EAD18B01F},,,MPD,2024/02/16 21:02:52+00,4281,
-76.9894862254356,38.8638512564795,15035070,1200 block of Pleasant St SE,2015/03/13 04:00:00+00,1548,2015/03/14 04:00:00+00,2015,3,7D,Ward 8,Gender Identity/Expression,,Robbery,811988,400912.6654388,132891.70271275,38.86384348,-76.98948395,,{67A5C215-2E82-4BDA-A9EB-D52AE883E6C2},,,MPD,2024/02/16 21:02:52+00,4282,
-77.0619471527165,38.9025999005137,15038284,3100 block of K St NW,2015/03/19 04:00:00+00,1350-1400,2015/03/19 04:00:00+00,2015,3,2D,Ward 2,Sexual Orientation,,Threats,800966,394626.86,137194.87,38.90259211,-77.06194485,,{0D4A119B-953B-4787-8C46-E74C23F67A5C},,,MPD,2024/02/16 21:02:52+00,4283,
-77.0482146641193,38.9045568643906,15039950,1100 block of New Hampshire Ave NW,2015/03/22 04:00:00+00,1315-1318,2015/03/22 04:00:00+00,2015,3,2D,Ward 2,Sexual Orientation,,Simple Assault,815281,395818.14,137411.39,38.90454908,-77.04821237,,{A5CDA92A-CD42-445A-9BF1-B8D775421B5C},,,MPD,2024/02/16 21:02:52+00,4284,
-77.0394481247044,38.9025308862905,15045344,17th St NW and K St NW,2015/03/31 04:00:00+00,1230-1250,2015/04/01 04:00:00+00,2015,4,2D,Ward 2,Political Affiliation,,Theft,900722,396578.43749878,137186.12502074,38.9025231,-77.03944583,,{7FC78844-22C0-481E-952E-5FC5CECA4AA7},,,MPD,2024/02/16 21:02:52+00,4285,
-77.0209121502843,38.9008756598781,15057805,600 block of I St NW,2015/04/23 04:00:00+00,1530-1532,2015/04/23 04:00:00+00,2015,4,1D,Ward 2,Religion,Jewish,Threats,809882,398186.22,137001.85,38.90086787,-77.02090986,,{AF1F3893-64B8-4FCF-A4CE-10B7C8B35317},,,MPD,2024/02/16 21:02:52+00,4286,
-77.0448943751799,38.9064581391204,15058585,1200 block of 20th St NW,2015/04/24 04:00:00+00,2120,2015/04/24 04:00:00+00,2015,4,2D,Ward 2,Political Affiliation,,Arson,812026,396106.24,137622.3,38.90645035,-77.04489208,,{CB217F02-0018-49F5-98EF-1F321E316411},,,MPD,2024/02/16 21:02:52+00,4287,
-77.0448760086212,38.914098601614,15062996,20th ST NW and S St NW,2015/04/29 04:00:00+00,2335-2345,2015/05/02 04:00:00+00,2015,5,2D,Ward 2,Race,Black,Threats,907042,396108.25001034,138470.45314993,38.91409081,-77.04487371,,{56C61BF0-B3C0-4D3C-A6FA-A5A5A414D3D3},,,MPD,2024/02/16 21:02:52+00,4288,
-77.0249503246167,38.8983203661601,15068440,900 block of G St NW,2015/05/12 04:00:00+00,0500-0505,2015/05/12 04:00:00+00,2015,5,2D,Ward 2,Gender Identity/Expression,,ADW,810315,397835.86,136718.28,38.89831258,-77.02494803,,{2E3565DE-BFE0-4B03-957C-BEF6042E3ED6},,,MPD,2024/02/16 21:02:52+00,4289,
-76.9851796549856,38.9006559774222,15069014,Florida Ave NE and Holbrook St NE,2015/05/13 04:00:00+00,0004-0015,2015/05/13 04:00:00+00,2015,5,5D,Ward 6,Sexual Orientation,,Simple Assault,900029,401285.75999915,136977.35999655,38.90064819,-76.98517738,,{12E961AF-FCF0-433D-834A-5FBE6A3B01C2},,,MPD,2024/02/16 21:02:52+00,4290,
-77.0805613872703,38.95038119726,15075484,4600 block of Wisconsin Ave NW,2015/05/23 04:00:00+00,1707-1708,2015/05/23 04:00:00+00,2015,5,2D,Ward 3,Race,Black,Simple Assault,809308,393016.93,142500.26,38.9503734,-77.08055908,,{4293AD2B-823D-4E6F-B04B-7631855DBA29},,,MPD,2024/02/16 21:02:52+00,4291,
-76.9751148317011,38.9172942137185,15084337,1800 block of New York Ave NE,2015/06/07 04:00:00+00,0243-0248,2015/06/07 04:00:00+00,2015,6,5D,Ward 5,Sexual Orientation,,Simple Assault,813064,402158.31,138824.53,38.91728642,-76.97511255,,{2A846DF1-4FFE-4C18-92DA-639672476542},,,MPD,2024/02/16 21:02:52+00,4292,
-76.9528213834473,38.9066693873516,15087650,3700 block of Hayes St NE,2015/06/12 04:00:00+00,1520-1525,2015/06/12 04:00:00+00,2015,6,6D,Ward 7,Sexual Orientation,,Simple Assault,816724,404092.27,137645.85,38.9066616,-76.95281911,,{CB24B072-174E-4467-BEF2-E033EDF663D3},,,MPD,2024/02/16 21:02:52+00,4293,
-77.0416878769151,38.9047068424587,15088054,1100 block of 18th St NW,2015/06/13 04:00:00+00,0430-0435,2015/06/13 04:00:00+00,2015,6,2D,Ward 2,Sexual Orientation,,Robbery,801811,396384.27,137427.76,38.90469905,-77.04168558,,{8B42AC2E-1029-49C3-AD25-DCA821372C5B},,,MPD,2024/02/16 21:02:52+00,4294,
-76.9908852990443,38.9002083058302,15092039,1100 block of H St NE,2015/06/19 04:00:00+00,1525-1530,2015/06/19 04:00:00+00,2015,6,1D,Ward 6,Sexual Orientation,,Simple Assault,811771,400790.84,136927.6,38.90020052,-76.99088302,,{9BB29002-F030-4971-B925-8D217340E34F},,,MPD,2024/02/16 21:02:52+00,4295,
-76.9915318652882,38.8851056385171,15092142,11th St SE and South Carolina Ave SE,2015/06/19 04:00:00+00,2010-2018,2015/06/19 04:00:00+00,2015,6,1D,Ward 6,Race,White,Simple Assault,902042,400734.91001464,135251.07999494,38.88509785,-76.99152959,,{4B8B6ABB-1703-43AC-ABA6-6B0D46F70EE4},,,MPD,2024/02/16 21:02:52+00,4296,
-77.0311141612476,38.9275891443049,15106302,1300 block of Columbia Rd NW,2015/07/12 04:00:00+00,2100-2105,2015/07/13 04:00:00+00,2015,7,3D,Ward 1,Sexual Orientation,,Threats,806754,397302.28,139967.52,38.92758135,-77.03111187,,{FA1336A6-C34E-4BA2-9FEF-99EEDDAA1321},,,MPD,2024/02/16 21:02:52+00,4297,
-77.0280852802465,38.9186544661472,15106071,2100 block of 12th St NW,2015/07/13 04:00:00+00,0650-0652,2015/07/13 04:00:00+00,2015,7,3D,Ward 1,Race,Black,Simple Assault,809767,397564.61,138975.61,38.91864668,-77.02808299,,{737497E7-4BA9-4B33-941B-0F3B902930B6},,,MPD,2024/02/16 21:02:52+00,4298,
-76.948983065639,38.8926848982401,15108057,3900 block of Clay Pl NE,2015/07/16 04:00:00+00,1330-1347,2015/07/16 04:00:00+00,2015,7,6D,Ward 7,Sexual Orientation,,Robbery,802705,404426.05683406,136093.63925973,38.89267711,-76.9489808,,{DCE996DE-20D4-41DD-8C1C-E22265910627},,,MPD,2024/02/16 21:02:52+00,4299,
-77.0896455628346,38.9406526592728,15114333,45th St NW and Massachusetts Ave NW,2015/07/26 04:00:00+00,1010-1028,2015/07/26 04:00:00+00,2015,7,2D,Ward 3,Race,Black,Damage/Defacing/Destruction of Property,902290,392228.43000674,141421.04000067,38.94064487,-77.08964325,,{511B6225-9A15-4F30-9889-02E1B19BCE20},,,MPD,2024/02/16 21:02:52+00,4300,
-77.0151792177242,38.9019313341853,15126726,900 block of 3rd St NW,2015/08/15 04:00:00+00,1345-1355,2015/08/15 04:00:00+00,2015,8,1D,Ward 6,Gender Identity/Expression,,Simple Assault,800088,398683.53,137118.94,38.90192355,-77.01517693,,{17B8383C-F321-40F4-98F1-50BE2B61B7E9},,,MPD,2024/02/16 21:02:52+00,4301,
-77.065131237347,38.9676174929026,15136567,3200 block of Patterson St NW,2015/08/20 04:00:00+00,0846-1838,2015/08/31 04:00:00+00,2015,8,2D,Ward 4,Religion,Jewish,Damage/Defacing/Destruction of Property,813826,394355.82,144412.58,38.96760969,-77.06512893,,{B744D859-35BF-45E1-9492-09966DB0DED1},,,MPD,2024/02/16 21:02:52+00,4302,
-77.0095003414123,38.8764673227545,15138024,Unit block of M St SW,2015/09/01 04:00:00+00,0630-0730,2015/09/02 04:00:00+00,2015,9,6D,Ward 6,Sexual Orientation,,Sexual Abuse,807215,399175.83,134292.17,38.87645954,-77.00949806,,{186C8D98-3E81-4EC3-BD29-69CA11BC9473},,,MPD,2024/02/16 21:02:52+00,4303,
-76.9476497764775,38.8966636721616,15138270,4000 block of Minnesota Ave NE,2015/09/03 04:00:00+00,1135-1200,2015/09/03 04:00:00+00,2015,9,6D,Ward 7,Sexual Orientation,,Threats,816435,404541.47,136535.38,38.89665588,-76.94764751,,{E60A8AFC-9889-4F64-A475-6DBDDD5B9804},,,MPD,2024/02/16 21:02:52+00,4304,
-76.9503361577178,38.8935520930915,15138950,3900 block of Minnesota Ave NE,2015/09/04 04:00:00+00,1300-1335,2015/09/04 04:00:00+00,2015,9,6D,Ward 7,Sexual Orientation,,Threats,810204,404308.62,136189.84,38.8935443,-76.95033389,,{45ECAC7A-2630-48E9-8FE2-40322D4C74C1},,,MPD,2024/02/16 21:02:52+00,4305,
-77.0533127541176,38.9016203570895,15143700,900 block of 25th St NW,2015/09/12 04:00:00+00,2400-2403,2015/09/12 04:00:00+00,2015,9,2D,Ward 2,Sexual Orientation,,Simple Assault,806379,395375.75,137085.66,38.90161257,-77.05331045,,{2D9F5362-F61A-4934-96AE-CA08CE02D0A9},,,MPD,2024/02/16 21:02:52+00,4306,
-77.0169191262798,38.9025278086911,15145195,400 block of K St NW,2015/09/14 04:00:00+00,1740-1745,2015/09/14 04:00:00+00,2015,9,1D,Ward 6,Race,White,Simple Assault,816529,398532.62,137185.18,38.90252002,-77.01691684,,{228270B4-2221-4266-BB82-47ABFE173257},,,MPD,2024/02/16 21:02:52+00,4307,
-76.9792451891799,38.8778172150443,15145619,1900 block of M St SE,2015/09/15 04:00:00+00,1319-1530,2015/09/15 04:00:00+00,2015,9,1D,Ward 6,Race,Black,Robbery,805401,401801.11,134442.18,38.87780943,-76.97924291,,{AD167460-5684-4759-A892-D18D7F664298},,,MPD,2024/02/16 21:02:52+00,4308,
-77.0297276220374,38.9334748144786,15150759,3500 block of 13th St NW,2015/09/19 04:00:00+00,2330-1930,2015/09/23 04:00:00+00,2015,9,4D,Ward 1,Sexual Orientation,,Damage/Defacing/Destruction of Property,808594,397422.72,140620.84,38.93346702,-77.02972533,,{920CBC47-6517-4E6B-B589-EFFBE916310C},,,MPD,2024/02/16 21:02:52+00,4309,
-76.9889073573149,38.9064200261533,15152168,1100 block of Owens Pl NE,2015/09/25 04:00:00+00,2237-2242,2015/09/25 04:00:00+00,2015,9,5D,Ward 5,Sexual Orientation,,Threats,810927,400962.33,137617.17,38.90641224,-76.98890508,,{3E25C60F-80EF-46B1-A494-F082542FCEFA},,,MPD,2024/02/16 21:02:52+00,4310,
-77.02837874142,38.9267472027232,15155750,1100 block of Harvard St NW,2015/10/01 04:00:00+00,2225-2230,2015/10/02 04:00:00+00,2015,10,3D,Ward 1,Sexual Orientation,,Robbery,810108,397539.44,139873.98,38.92673941,-77.02837645,,{B091E2AE-E061-48A8-AC2B-B330F539CE21},,,MPD,2024/02/16 21:02:52+00,4311,
-77.0111837958105,38.8983377196105,15159716,G St NW and Massachusetts Ave NW,2015/10/08 04:00:00+00,0500-1130,2015/10/08 04:00:00+00,2015,10,1D,Ward 6,Gender Identity/Expression,,Simple Assault,900107,399030.05001305,136719.97001231,38.89832993,-77.01118151,,{39749AE3-79DE-40FB-8085-8E950BAAB0FE},,,MPD,2024/02/16 21:02:52+00,4312,
-77.050115161311,38.902535031835,15159566,K St NW and Washington Cir NW,2015/10/08 04:00:00+00,1134-1230,2015/10/08 04:00:00+00,2015,10,2D,Ward 2,Religion,Muslim,ADW,912879,395653.17091999,137187.03908189,38.90252724,-77.05011286,,{919E0DAE-B52F-4E2E-A65A-7FE2B2612415},,,MPD,2024/02/16 21:02:52+00,4313,
-77.0448899970729,38.9111341485638,15162534,20th ST NW and Q St NW,2015/10/13 04:00:00+00,1215-1216,2015/10/13 04:00:00+00,2015,10,2D,Ward 2,Race,Unspecified,Damage/Defacing/Destruction of Property,900433,396106.87500234,138141.37500563,38.91112636,-77.0448877,,{B9E5B75F-72BD-4DD5-A089-7A0527C5D8FE},,,MPD,2024/02/16 21:02:52+00,4314,
-77.0253159206806,38.9170053257702,15164932,Vermont Ave NW and U St NW,2015/10/17 04:00:00+00,0305-0310,2015/10/17 04:00:00+00,2015,10,3D,Ward 1,Race,Black,Simple Assault,903436,397804.72133992,138792.47139023,38.91699754,-77.02531363,,{C1CDC33C-8226-49E2-8D9B-C6340620E986},,,MPD,2024/02/16 21:02:52+00,4315,
-77.0097166451117,38.824394485591,15167760,Unit block of Galveston Pl SW,2015/10/21 04:00:00+00,2100-2105,2015/10/21 04:00:00+00,2015,10,7D,Ward 8,Sexual Orientation,,Robbery,813921,399156.44543717,128511.71982869,38.82438671,-77.00971436,,{61007466-7494-4524-8DB3-D603F8F93B1A},,,MPD,2024/02/16 21:02:52+00,4316,
-77.029622312295,38.8983206260792,15168831,13th St NW and G ST NW,2015/10/23 04:00:00+00,1640-1651,2015/10/23 04:00:00+00,2015,10,1D,Ward 2,Sexual Orientation,,Simple Assault,905734,397430.58428357,136718.43001231,38.89831284,-77.02962002,,{E6936037-F6A0-4F5C-A275-C11ADA714944},,,MPD,2024/02/16 21:02:52+00,4317,
-77.0209190709617,38.8973505064376,15173860,600 block of F St NW,2015/11/01 04:00:00+00,2245-2400,2015/11/01 04:00:00+00,2015,11,1D,Ward 2,Gender Identity/Expression,,ADW,804562,398185.53,136610.53,38.89734272,-77.02091678,,{80C79854-574C-4BE7-A178-4849C65751AB},,,MPD,2024/02/16 21:02:52+00,4318,
-77.0325158075037,38.9037452308988,15177323,1400 block of L St NW,2015/11/06 05:00:00+00,1645-1655,2015/11/06 05:00:00+00,2015,11,2D,Ward 2,Race,Black,Threats,807754,397179.8,137320.69,38.90373744,-77.03251351,,{77FEB360-80E6-456C-AAE7-2D321B43E9FD},,,MPD,2024/02/16 21:02:52+00,4319,
-77.0234441903088,38.9168761638835,15178501,800 block of Florida Ave NW,2015/11/08 05:00:00+00,1453-1500,2015/11/08 05:00:00+00,2015,11,3D,Ward 1,Race,White,Robbery,813652,397967.04,138778.09,38.91686837,-77.0234419,,{FCDC8FB8-CDF9-467A-A908-E4F370C1D691},,,MPD,2024/02/16 21:02:52+00,4320,
-77.0212870589341,38.9236901151925,15180337,2400 block of 6th St NW,2015/11/11 05:00:00+00,1928-1929,2015/11/11 05:00:00+00,2015,11,3D,Ward 1,Race,Black,Threats,804466,398154.29,139534.45,38.92368232,-77.02128477,,{98368E65-485C-4CDF-B976-1D50A067A878},,,MPD,2024/02/16 21:02:52+00,4321,
-77.0655765227116,38.9585780002958,15194549,5300 block of Nevada Ave NW,2015/12/06 05:00:00+00,1520-1645,2015/12/06 05:00:00+00,2015,12,2D,Ward 3,Race,Black,Threats,804004,394316.51,143409.14,38.9585702,-77.06557422,,{A7C9065B-D235-4697-85B1-B7D68B561ED4},,,MPD,2024/02/16 21:02:52+00,4322,
-76.9837861434821,38.9040767157779,15197337,1400 block of Staples St NE,2015/12/10 05:00:00+00,1214-1214,2015/12/10 05:00:00+00,2015,12,5D,Ward 5,Race,White,Threats,811530,401406.57,137357.11,38.90406893,-76.98378386,,{B664C681-294E-432D-898E-A927DA1FF708},,,MPD,2024/02/16 21:02:52+00,4323,
-77.0627655885721,38.9030148390458,15198456,1000 block of Wisconsin Ave NW,2015/12/13 05:00:00+00,0032-0126,2015/12/13 05:00:00+00,2015,12,2D,Ward 2,Ethnicity/National Origin,Arab/Middle Eastern,Threats,803006,394555.9,137240.98,38.90300705,-77.06276329,,{97BFFA95-23CF-4B42-994C-65DC881F0E7B},,,MPD,2024/02/16 21:02:52+00,4324,
-77.0176370262884,38.8778743896329,16000379,1100 block of 4th St SW,2016/01/01 05:00:00+00,0340-0350,2016/01/01 05:00:00+00,2016,1,1D,Ward 6,Sexual Orientation,,Simple Assault,815976,398469.82,134448.47,38.87786661,-77.01763474,,{4C37ABE1-7267-4909-B57E-BC1670597D78},,,MPD,2024/02/16 21:02:52+00,4325,
-77.0620002480358,38.9051931978904,16006051,3100 block of M St NW,2016/01/12 05:00:00+00,2000,2016/01/12 05:00:00+00,2016,1,2D,Ward 2,Ethnicity/National Origin,Unspecified,Simple Assault,809180,394622.45,137482.75,38.90518541,-77.06199794,,{F1D7F37B-681C-49EA-A297-3C9C23A5B38C},,,MPD,2024/02/16 21:02:52+00,4326,
-77.0473490578984,38.8960259401971,16010086,2100 block of E St NW,2016/01/16 05:00:00+00,0001-0100,2016/01/19 05:00:00+00,2016,1,2D,Ward 2,Ethnicity/National Origin,Asian,Theft,807732,395892.73,136464.35,38.89601815,-77.04734676,,{4FDF148E-B008-4AF0-9A28-A5981C4AE87E},,,MPD,2024/02/16 21:02:52+00,4327,
-77.0209190709617,38.8973505064376,16010112,600 block of F St NW,2016/01/19 05:00:00+00,1930-1935,2016/01/19 05:00:00+00,2016,1,1D,Ward 2,Gender Identity/Expression,,Threats,804562,398185.53,136610.53,38.89734272,-77.02091678,,{BB426EDA-C2F2-48C6-9ECF-522A79F41078},,,MPD,2024/02/16 21:02:52+00,4328,
-76.9458042989065,38.8865162470306,16013182,4300 block of C St SE,2016/01/19 05:00:00+00,0000,2016/01/21 05:00:00+00,2016,1,6D,Ward 7,Sexual Orientation,,Voyeurism,807273,404702.23,135409.03,38.88650846,-76.94580203,,{B68AA00C-CE46-489E-92B0-A1A2932A54E3},,,MPD,2024/02/16 21:02:52+00,4329,
-77.0209190709617,38.8973505064376,16013651,600 block of F St NW,2016/01/28 05:00:00+00,0730-0800,2016/01/28 05:00:00+00,2016,1,1D,Ward 2,Sexual Orientation,,Robbery,804562,398185.53,136610.53,38.89734272,-77.02091678,,{D0BA4699-D8F1-42D2-AC8D-F5AA050BC7B7},,,MPD,2024/02/16 21:02:52+00,4330,
-76.9278671452539,38.8821593000572,16020096,5200 block of E St SE,2016/02/07 05:00:00+00,2230-2235,2016/02/09 05:00:00+00,2016,2,6D,Ward 7,Gender Identity/Expression,,Simple Assault,811984,406258.84358776,134926.45234664,38.88215151,-76.92786489,,{755571A5-2819-40A5-B4EE-02A772D6386E},,,MPD,2024/02/16 21:02:52+00,4331,
-77.0441548951224,38.912612652565,16022306,1900 block of R St NW,2016/02/13 05:00:00+00,0340-0350,2016/02/13 05:00:00+00,2016,2,2D,Ward 2,Ethnicity/National Origin,Latino/Hispanic,Robbery,806127,396170.71,138305.47,38.91260486,-77.0441526,,{0817C901-7FB4-4346-B1DC-1EE68D13989E},,,MPD,2024/02/16 21:02:52+00,4332,
-77.0425505796906,38.9126151395914,16028747,1800 block of R St NW,2016/02/25 05:00:00+00,1200-12205,2016/02/25 05:00:00+00,2016,2,2D,Ward 2,Religion,Jewish,Damage/Defacing/Destruction of Property,803082,396309.85,138305.68,38.91260735,-77.04254828,,{E7DAB251-9A7A-4DFD-95E4-0DF31C280FA2},,,MPD,2024/02/16 21:02:52+00,4333,
-77.0199124958172,38.9003467736059,16029135,800 block of 6th St NW,2016/02/26 05:00:00+00,0819-0835,2016/02/26 05:00:00+00,2016,2,1D,Ward 2,Race,Black,Simple Assault,811531,398272.92,136943.12,38.90033899,-77.01991021,,{4D0612B3-4799-4991-A16D-42134B62D73D},,,MPD,2024/02/16 21:02:52+00,4334,
-76.9973090746063,38.8967286997571,16035192,600 block of Acker Pl NE,2016/03/06 05:00:00+00,2200-2300,2016/03/07 05:00:00+00,2016,3,1D,Ward 6,Sexual Orientation,,ADW,806308,400233.63,136541.3,38.89672091,-76.99730679,,{47E2AF38-7DC8-429E-9FB6-D29D20C40BA5},,,MPD,2024/02/16 21:02:52+00,4335,
-77.0365252794246,38.9100205237909,16036050,1500 block of 16th St NW,2016/03/08 05:00:00+00,1000,2016/03/09 05:00:00+00,2016,3,2D,Ward 2,Religion,Jewish,Damage/Defacing/Destruction of Property,806024,396832.3,138017.43,38.91001273,-77.03652298,,{06B5E73C-8258-426E-9CCE-D161B1E07C7B},,,MPD,2024/02/16 21:02:52+00,4336,
-76.9931424855264,38.9222243975062,16039876,900 block of Rhode Island Ave NE,2016/03/15 04:00:00+00,1708-1715,2016/03/15 04:00:00+00,2016,3,5D,Ward 5,Sexual Orientation,,Simple Assault,814008,400594.86,139371.55,38.9222166,-76.9931402,,{B186AEDF-3842-46E2-9DED-260FC841ED5A},,,MPD,2024/02/16 21:02:52+00,4337,
-76.94139642427,38.8897860194493,16041944,4100 block of East Capitol St NE,2016/03/19 04:00:00+00,2400-2404,2016/03/19 04:00:00+00,2016,3,6D,Ward 7,Ethnicity/National Origin,Latino/Hispanic,Robbery,807435,405084.42521867,135772.23634743,38.88977823,-76.94139416,,{FAF58E03-6BB5-490A-8CCF-1FC78B949067},,,MPD,2024/02/16 21:02:52+00,4338,
-77.0260575753501,38.9472157699133,16043698,900 block of Crittenden St NW,2016/03/22 04:00:00+00,0940,2016/03/22 04:00:00+00,2016,3,4D,Ward 4,Sexual Orientation,,Simple Assault,808804,397741.36,142146.11,38.94720797,-77.02605528,,{F4F753A7-4227-40DD-8322-6DD6C7AC2851},,,MPD,2024/02/16 21:02:52+00,4339,
-77.0327321588336,38.9295246790098,16045961,3100 block of 14th St NW,2016/03/25 04:00:00+00,1740,2016/03/25 04:00:00+00,2016,3,3D,Ward 1,Gender Identity/Expression,,Simple Assault,800897,397162.06,140182.43,38.92951689,-77.03272986,,{83148F26-CA2E-4061-A1BC-E00A020576BB},,,MPD,2024/02/16 21:02:52+00,4340,
-77.078128978998,38.9451464231268,16047246,4300 block of Wisconsin Ave NW,2016/03/27 04:00:00+00,2020,2016/03/27 04:00:00+00,2016,3,2D,Ward 3,Ethnicity/National Origin,Latino/Hispanic,Threats,804419,393227.28,141918.97,38.94513863,-77.07812667,,{B4B0DB95-1077-42E7-9134-F47BB1268F79},,,MPD,2024/02/16 21:02:52+00,4341,
-76.9286995213325,38.89971486612,16051894,5000 block of Hayes St NE,2016/04/04 04:00:00+00,1745-1746,2016/04/04 04:00:00+00,2016,4,6D,Ward 7,Sexual Orientation,,Threats,815756,406185.1,136875.2,38.89970708,-76.92869726,,{071583E2-9D48-46AD-86C1-7DDA12BA2E31},,,MPD,2024/02/16 21:02:52+00,4342,
-77.0209190709617,38.8973505064376,16053744,600 block of F St NW,2016/04/08 04:00:00+00,0100-0144,2016/04/08 04:00:00+00,2016,4,1D,Ward 2,Race,Black,Simple Assault,804562,398185.53,136610.53,38.89734272,-77.02091678,,{0932412F-989D-40AF-AB63-842DEB9CFA1F},,,MPD,2024/02/16 21:02:52+00,4343,
-76.9943300520729,38.9045237967499,16054512,800 block of Florida Ave NE,2016/04/09 04:00:00+00,0355,2016/04/09 04:00:00+00,2016,4,5D,Ward 6,Religion,Jewish,Damage/Defacing/Destruction of Property,802627,400492,137406.63,38.90451601,-76.99432777,,{149AF077-4839-428C-9266-0D205BFB86B8},,,MPD,2024/02/16 21:02:52+00,4344,
-77.0423677621623,38.9216308360012,16054987,2400 block of 18th St NW,2016/04/10 04:00:00+00,0100-0115,2016/04/10 04:00:00+00,2016,4,3D,Ward 1,Sexual Orientation,,Simple Assault,813850,396326.17,139306.49,38.92162305,-77.04236546,,{AEA3FA64-BAA5-41E6-AA8D-074D4FC2A130},,,MPD,2024/02/16 21:02:52+00,4345,
-76.9943300520729,38.9045237967499,16058198,800 block of Florida Ave NE,2016/04/15 04:00:00+00,0914,2016/04/15 04:00:00+00,2016,4,5D,Ward 6,Religion,Jewish,Damage/Defacing/Destruction of Property,802627,400492,137406.63,38.90451601,-76.99432777,,{5F22F267-1F42-4FCE-8BB1-9AC2F5821409},,,MPD,2024/02/16 21:02:52+00,4346,
-77.0245857085619,38.9381561820186,16070040,3800 block of Georgia Ave NW,2016/04/20 04:00:00+00,1115,2016/05/04 04:00:00+00,2016,5,4D,Ward 4,Sexual Orientation,,Threats,806775,397868.68,141140.38,38.93814839,-77.02458342,,{7208D6FF-164C-47F0-828C-1FBC11195917},,,MPD,2024/02/16 21:02:52+00,4347,
-77.0215951554086,38.930033624852,16062767,600 block of Kenyon St NW,2016/04/21 04:00:00+00,2330-2400,2016/04/22 04:00:00+00,2016,4,4D,Ward 1,Religion,Muslim,Damage/Defacing/Destruction of Property,806833,398127.74,140238.64,38.93002583,-77.02159286,,{86846DDA-6754-4B29-B16B-316A508F559B},,,MPD,2024/02/16 21:02:52+00,4348,
-76.9881730419044,38.9030547939084,16063030,1200 block of Morse St NE,2016/04/22 04:00:00+00,1625-1628,2016/04/22 04:00:00+00,2016,4,5D,Ward 5,Race,Black,Simple Assault,803110,401026.07,137243.61,38.903047,-76.98817076,,{FF1ADC1D-E54A-4744-B5C5-103BBA32DB36},,,MPD,2024/02/16 21:02:52+00,4349,
-77.0138421101003,38.9427565015857,16064153,4200 block of 2nd St NW,2016/04/24 04:00:00+00,1041-1100,2016/04/24 04:00:00+00,2016,4,4D,Ward 4,Sexual Orientation,,ADW,811534,398800.2,141650.86,38.94274871,-77.01383982,,{0C0DA157-82B8-4A8E-8685-B6F9EA775614},,,MPD,2024/02/16 21:02:52+00,4350,
-77.0270392419085,38.9231049162166,16066584,2500 block of 11th St NW,2016/04/28 04:00:00+00,0841-1100,2016/04/28 04:00:00+00,2016,4,3D,Ward 1,Sexual Orientation,,ADW,812308,397655.47,139469.62,38.92309712,-77.02703695,,{26C95844-FE81-481F-A92C-CEDD2E4F61E9},,,MPD,2024/02/16 21:02:52+00,4351,
-77.0177945379322,38.9188802534266,16071328,2100 block of 4th St NW,2016/05/05 04:00:00+00,2236,2016/05/06 04:00:00+00,2016,5,3D,Ward 1,Sexual Orientation,,ADW,802661,398457.04,139000.45,38.91887246,-77.01779225,,{2F09B22B-6BA4-4EFE-AF4D-E7EAC1E98972},,,MPD,2024/02/16 21:02:52+00,4352,
-77.0344953901604,38.9675738820535,16071395,1400 block of Tuckerman St NW,2016/05/06 04:00:00+00,0042-0202,2016/05/06 04:00:00+00,2016,5,4D,Ward 4,Race,Black,Simple Assault,801150,397010.77,144406.29,38.96756608,-77.03449309,,{438812F5-3F19-4C6A-A623-046958821BA4},,,MPD,2024/02/16 21:02:52+00,4353,
-77.0194175926522,38.9041751383278,16076517,500 block of L St NW,2016/05/14 04:00:00+00,0240-0244,2016/05/14 04:00:00+00,2016,5,5D,Ward 2,Gender Identity/Expression,,ADW,812058,398315.94,137368.09,38.90416735,-77.0194153,,{C6B2E4E8-458D-4971-AACA-9C6B8206B15A},,,MPD,2024/02/16 21:02:52+00,4354,
-77.0244008704367,38.9369769444542,16078670,3700 block of Georgia Ave NW,2016/05/17 04:00:00+00,1720-1730,2016/05/17 04:00:00+00,2016,5,4D,Ward 4,Sexual Orientation,,Simple Assault,809816,397884.67,141009.47,38.93696915,-77.02439858,,{E4C80C05-51CA-4A06-A86B-B23383F609D9},,,MPD,2024/02/16 21:02:52+00,4355,
-77.0156803516559,38.899787008288,16079118,300 block of H St NW,2016/05/18 04:00:00+00,1153-1154,2016/05/18 04:00:00+00,2016,5,1D,Ward 6,Gender Identity/Expression,,Simple Assault,800047,398640.02,136880.91,38.89977922,-77.01567806,,{33C00ACA-ADC0-4928-8C11-7830BE74A634},,,MPD,2024/02/16 21:02:52+00,4356,
-77.0799396241634,38.9483648501849,16080636,4500 block of Wisconsin Ave NW,2016/05/20 04:00:00+00,1759-1800,2016/05/20 04:00:00+00,2016,5,2D,Ward 3,Homelessness,,Simple Assault,803221,393070.63,142276.38,38.94835706,-77.07993731,,{9C7ECA8B-7F4A-4846-9883-58D511FDCE54},,,MPD,2024/02/16 21:02:52+00,4357,
-77.0161378882842,38.9756335635566,16118491,200 block of Cedar St NW,2016/07/17 04:00:00+00,1930-1940,2016/07/17 04:00:00+00,2016,7,4D,Ward 4,Religion,Muslim,Threats,811878,398601.82,145300.55,38.97562576,-77.0161356,,{33A8ED2E-87C3-4966-B8C0-A5C5F8E770A3},,,MPD,2024/02/16 21:02:52+00,4358,
-77.0246367626532,38.9170041971694,16118067,900 block of U St NW,2016/07/17 04:00:00+00,0020-0021,2016/07/17 04:00:00+00,2016,7,3D,Ward 1,Race,Black,Simple Assault,813703,397863.62,138792.33,38.91699641,-77.02463447,,{8A784B1B-8819-4F4D-80AD-AD5450FD3FC3},,,MPD,2024/02/16 21:02:52+00,4359,
-77.0449050325721,38.9047070914982,16119683,1100 block of 20th St NW,2016/07/19 04:00:00+00,0000-1710,2016/07/23 04:00:00+00,2016,7,2D,Ward 2,Religion,Jewish,Damage/Defacing/Destruction of Property,802734,396105.22,137427.92,38.9046993,-77.04490273,,{1EFA0BC4-195C-4752-9E2A-B3E58D875174},,,MPD,2024/02/16 21:02:52+00,4360,
-77.0296259896042,38.9159371725967,16214281,1900 block of 13th St NW,2016/07/25 04:00:00+00,1830-1835,2016/07/26 04:00:00+00,2016,7,5D,Ward 1,Sexual Orientation,,ADW,805617,397430.9,138674.01,38.91592938,-77.0296237,,{8E30DF06-2066-419C-BFE3-4BAA46CD14CD},,,MPD,2024/02/16 21:02:52+00,4361,
-76.9954666850829,38.8587587085665,16123724,2600 block of Martin Luther King Ave SE,2016/07/25 04:00:00+00,2233-2343,2016/07/26 04:00:00+00,2016,7,7D,Ward 8,Sexual Orientation,,Threats,806491,400393.66249432,132326.35020023,38.85875093,-76.99546441,,{1722146C-A0B4-4982-91F4-C70FE79F3493},,,MPD,2024/02/16 21:02:52+00,4362,
-77.058219820691,38.9176953005309,16128121,2650 block of Massachusetts Ave NW,2016/08/01 04:00:00+00,1902-2017,2016/08/01 04:00:00+00,2016,8,2D,Ward 2,Religion,Muslim,Threats,813802,394951.24,138870.37,38.91768751,-77.05821752,,{363C6237-35B6-484C-BAF0-AA8232272896},,,MPD,2024/02/16 21:02:52+00,4363,
-76.92796575858,38.8913401115674,16129021,100 block of Division Ave NE,2016/08/03 04:00:00+00,0110-0700,2016/08/03 04:00:00+00,2016,8,6D,Ward 7,Sexual Orientation,,Threats,801773,406249.48320375,135945.58626759,38.89133232,-76.9279635,,{2302E25B-01C3-47F8-A9AD-48E8807DB271},,,MPD,2024/02/16 21:02:52+00,4364,
-76.9713563317619,38.8516665262436,16131000,2400 block of Alabama Ave SE,2016/08/06 04:00:00+00,0405,2016/08/06 04:00:00+00,2016,8,7D,Ward 8,Ethnicity/National Origin,Latino/Hispanic,Robbery,806892,402486.54336026,131539.4476395,38.85165875,-76.97135406,,{4A099B08-4733-4602-A024-2D95023976DC},,,MPD,2024/02/16 21:02:52+00,4365,
-77.0219191035581,38.8954708175118,16141289,400 block of 7th St NW,2016/08/21 04:00:00+00,1800-2059,2016/08/22 04:00:00+00,2016,8,1D,Ward 2,Religion,Jewish,Damage/Defacing/Destruction of Property,813752,398098.73,136401.89,38.89546303,-77.02191681,,{5A06D913-6196-4466-A994-3B7E7446CD5C},,,MPD,2024/02/16 21:02:52+00,4366,
-77.0327256702028,38.9307153092958,16144770,3300 block of 14th St NW,2016/08/28 04:00:00+00,0411-0503,2016/08/28 04:00:00+00,2016,8,3D,Ward 1,Gender Identity/Expression,,Simple Assault,811139,397162.67,140314.6,38.93070752,-77.03272337,,{DC34BB61-0D3E-4D70-A290-2C3E6F375B23},,,MPD,2024/02/16 21:02:52+00,4367,
-77.0267778234154,38.9747216896803,16150940,6900 block of Georgia Ave NW,2016/09/06 04:00:00+00,2250-2310,2016/09/07 04:00:00+00,2016,9,4D,Ward 4,Ethnicity/National Origin,Latino/Hispanic,Simple Assault,800189,397679.82,145199.54,38.97471389,-77.02677553,,{2411AE23-4A3E-4239-BABB-A0F8B3EFE101},,,MPD,2024/02/16 21:02:52+00,4368,
-76.9922193627177,38.8362490733255,16155806,900 block of Blakney Lane SE,2016/09/14 04:00:00+00,0045,2016/09/14 04:00:00+00,2016,9,7D,Ward 8,Gender Identity/Expression,,Threats,804707,400675.72348658,129827.64216591,38.8362413,-76.99221709,,{AADCAD97-0955-4AAE-9D7F-342183A92EFF},,,MPD,2024/02/16 21:02:52+00,4369,
-77.0005781841742,38.8881473537065,16157283,100 block of 4th St SE,2016/09/16 04:00:00+00,1715,2016/09/16 04:00:00+00,2016,9,1D,Ward 6,Disability,,Simple Assault,800642,399950.03580591,135588.69999526,38.88813957,-77.0005759,,{163717FD-8A6A-419D-965E-77457C1C3E53},,,MPD,2024/02/16 21:02:52+00,4370,
-77.0169444863967,38.9141623552518,16162028,400 block of Florida Ave NW,2016/09/23 04:00:00+00,2151-2215,2016/09/23 04:00:00+00,2016,9,3D,Ward 1,Race,White,Simple Assault,807218,398530.66,138476.71,38.91415456,-77.0169422,,{4F2E4EE8-7012-4939-8585-85D4D1B96332},,,MPD,2024/02/16 21:02:52+00,4371,
-77.0332528296919,38.9118755981844,16168163,1400 block of Corcoran St NW,2016/10/01 04:00:00+00,1300-1720,2016/10/03 04:00:00+00,2016,10,3D,Ward 2,Race,Black,Damage/Defacing/Destruction of Property,806220,397116.2,138223.25,38.91186781,-77.03325054,,{AC0383E6-BDF9-41B1-A91D-02D744611E9A},,,MPD,2024/02/16 21:02:52+00,4372,
-76.9819190814707,38.9007508267863,16169200,1500 block of Maryland Ave NE,2016/10/05 04:00:00+00,1145-1238,2016/10/05 04:00:00+00,2016,10,5D,Ward 5,Gender Identity/Expression,,Simple Assault,800273,401568.59,136987.94,38.90074304,-76.9819168,,{3E457A44-A1CD-4021-BBEA-5BC40DFC46BB},,,MPD,2024/02/16 21:02:52+00,4373,
-76.9815249248386,38.8571376183209,16170819,1600 block of Morris Rd SE,2016/10/07 04:00:00+00,2030-2036,2016/10/08 04:00:00+00,2016,10,7D,Ward 8,Ethnicity/National Origin,Black/African,Threats,808414,401603.76,132146.55,38.85712984,-76.98152265,,{0AC63867-7E1B-4C15-8A37-AD7E8CE6D0FC},,,MPD,2024/02/16 21:02:52+00,4374,
-77.0327318032381,38.9382966057694,16175768,3800 block of 14th St NW,2016/10/16 04:00:00+00,0240-0320,2016/10/16 04:00:00+00,2016,10,1D,Ward 4,Gender Identity/Expression,,Simple Assault,803759,397162.44,141156.19,38.93828881,-77.03272951,,{F518746C-8622-4070-9355-2A8E03807C4C},,,MPD,2024/02/16 21:02:52+00,4375,
-76.9879879269011,38.841990369576,16176048,1300 block of Congress St SE,2016/10/16 04:00:00+00,1542-1642,2016/10/16 04:00:00+00,2016,10,7D,Ward 8,Gender Identity/Expression,,ADW,804649,401043.01871892,130465.0051745,38.84198259,-76.98798565,,{BA95FCA7-C205-42D3-AE22-56CAFADC131E},,,MPD,2024/02/16 21:02:52+00,4376,
-76.9961698087951,38.9007740532421,16177646,800 block of 7th St NE,2016/10/19 04:00:00+00,0522-0525,2016/10/19 04:00:00+00,2016,10,1D,Ward 6,Gender Identity/Expression,,Simple Assault,806285,400332.44,136990.37,38.90076626,-76.99616753,,{6E6BCCF9-CFDF-4EEC-BEB6-4616009883B5},,,MPD,2024/02/16 21:02:52+00,4377,
-77.0471479755882,38.9141017327476,16181036,2100 block of S St NW,2016/10/22 04:00:00+00,0300-1057,2016/10/24 04:00:00+00,2016,10,2D,Ward 2,Sexual Orientation,,Threats,805642,395911.21,138470.9,38.91409394,-77.04714568,,{3E8A07F2-8ACE-4838-9320-754EFED978E7},,,MPD,2024/02/16 21:02:52+00,4378,
-77.0715570778416,38.9203122013849,16179656,2300 block of Wisconsin Ave NW,2016/10/22 04:00:00+00,0313,2016/10/22 04:00:00+00,2016,10,2D,Ward 3,Sexual Orientation,,Simple Assault,814763,393794.83,139161.69,38.92030441,-77.07155477,,{65E255F9-AD09-42DF-B946-CC6F2251EE92},,,MPD,2024/02/16 21:02:52+00,4379,
-77.0083902161693,38.8972117280431,16180630,Unit block of Massachusetts Ave NE,2016/10/23 04:00:00+00,1714-1821,2016/10/23 04:00:00+00,2016,10,1D,Ward 6,Sexual Orientation,,ADW,800876,399272.37,136594.95,38.89720394,-77.00838793,,{EFCD1862-99DC-4D21-9A7E-F710DE8A7C8E},,,MPD,2024/02/16 21:02:52+00,4380,
-77.0203194081405,38.9156017095009,16184816,600 block of Florida Ave NW,2016/10/30 04:00:00+00,0151-0345,2016/10/30 04:00:00+00,2016,10,3D,Ward 2,Sexual Orientation,,Simple Assault,810091,398238,138636.55,38.91559392,-77.02031712,,{1A583FAB-9BA4-4214-BCF4-B3E02699E783},,,MPD,2024/02/16 21:02:52+00,4381,
-77.0242899020094,38.9223917906116,16188074,2500 block of 9th St NW,2016/11/04 04:00:00+00,1745,2016/11/04 04:00:00+00,2016,11,3D,Ward 1,Ethnicity/National Origin,Latino/Hispanic,Threats,807180,397893.86,139390.39,38.922384,-77.02428761,,{1B35C265-84A8-4337-A6EB-C85DEA46172D},,,MPD,2024/02/16 21:02:52+00,4382,
-77.0161672833885,38.9103889616676,16188276,1500 block of 4th St NW,2016/11/04 04:00:00+00,1551,2016/11/04 04:00:00+00,2016,11,3D,Ward 5,Gender Identity/Expression,,ADW,814162,398597.99,138057.82,38.91038117,-77.01616499,,{9DDF15C6-BA60-4025-8CAC-FAEFB6705524},,,MPD,2024/02/16 21:02:52+00,4383,
-77.0809648115025,38.906705807848,16189410,1400 block of Foxhall Rd NW,2016/11/05 04:00:00+00,2000-1059,2016/11/06 04:00:00+00,2016,11,2D,Ward 3,Political Affiliation,,Damage/Defacing/Destruction of Property,813923,392977.66,137651.95,38.90669802,-77.0809625,,{F6F9D0C0-5C91-44C5-8659-A163BD4C6BC8},,,MPD,2024/02/16 21:02:52+00,4384,
-77.0244008704367,38.9369769444542,16190338,3700 block of Georgia Ave NW,2016/11/07 05:00:00+00,2040,2016/11/07 05:00:00+00,2016,11,4D,Ward 4,Gender Identity/Expression,,Simple Assault,809816,397884.67,141009.47,38.93696915,-77.02439858,,{1F1EB824-A4A3-4141-9904-7149A36DFFB7},,,MPD,2024/02/16 21:02:52+00,4385,
-77.0758380831811,38.928282137888,16193410,2900 block of Bellevue Ter NW,2016/11/12 05:00:00+00,0000-1030,2016/11/13 05:00:00+00,2016,11,2D,Ward 3,Religion,Jewish,Damage/Defacing/Destruction of Property,807284,393424.32,140046.72,38.92827435,-77.07583577,,{4DE63B0E-9C16-44BE-A2AA-350692C521DD},,,MPD,2024/02/16 21:02:52+00,4386,
-77.0709786721488,38.9076973647099,16195957,3700 block of O St NW,2016/11/13 05:00:00+00,0105,2016/11/17 05:00:00+00,2016,11,2D,Ward 2,Religion,Muslim,Simple Assault,810249,393843.9,137761.3,38.90768958,-77.07097637,,{26149290-2B5B-49CB-8FF4-ED597A174ACE},,,MPD,2024/02/16 21:02:52+00,4387,
-77.0441753799882,38.9056622550916,16196212,1900 block of M St NW,2016/11/18 05:00:00+00,0215,2016/11/18 05:00:00+00,2016,11,2D,Ward 2,Political Affiliation,,ADW,813384,396168.56,137533.92,38.90565447,-77.04417308,,{DE88FB06-9F09-4097-85FB-2492836C1B90},,,MPD,2024/02/16 21:02:52+00,4388,
-77.0224194331647,38.9164967538434,16196907,700 block of Florida Ave NW,2016/11/19 05:00:00+00,0409,2016/11/19 05:00:00+00,2016,11,3D,Ward 1,Sexual Orientation,,ADW,800541,398055.9,138735.95,38.91648896,-77.02241714,,{4FBD8E69-B2BF-4CAD-B894-4F6A494C3189},,,MPD,2024/02/16 21:02:52+00,4389,
-77.0245857085619,38.9381561820186,16197526,3800 block of Georgia Ave NW,2016/11/20 05:00:00+00,0545-0630,2016/11/20 05:00:00+00,2016,11,4D,Ward 4,Sexual Orientation,,Simple Assault,806775,397868.68,141140.38,38.93814839,-77.02458342,,{B601B895-9F0B-40FD-B844-AF77E37158C5},,,MPD,2024/02/16 21:02:52+00,4390,
-76.9237294658163,38.8949406000985,16202012,5300 block of Dix St NE,2016/11/28 05:00:00+00,1910,2016/11/28 05:00:00+00,2016,11,6D,Ward 7,Sexual Orientation,,Simple Assault,806027,406616.66608409,136345.56722796,38.89493281,-76.92372721,,{3EE2679C-3446-4AA5-B2BB-FB4B5B95CF30},,,MPD,2024/02/16 21:02:52+00,4391,
-76.9920320663602,38.8418265303205,16208137,3300 block of 10th Pl SE,2016/12/09 05:00:00+00,1130,2016/12/09 05:00:00+00,2016,12,7D,Ward 8,Sexual Orientation,,Simple Assault,800977,400691.9308146,130446.77947849,38.84181875,-76.99202979,,{D802D6C6-8991-4216-8350-BE71FFC079CF},,,MPD,2024/02/16 21:02:52+00,4392,
-77.0514068694978,38.9062596134747,16212622,1200 block of 24th St NW,2016/12/17 05:00:00+00,0152,2016/12/17 05:00:00+00,2016,12,2D,Ward 2,Religion,Christian,Simple Assault,808655,395541.36,137600.56,38.90625183,-77.05140457,,{83FFC764-BB23-495C-95EA-E3AB0B1EE432},,,MPD,2024/02/16 21:02:52+00,4393,
-77.0194175926522,38.9041751383278,16213056,540 block of L St NW,2016/12/17 05:00:00+00,2041,2016/12/17 05:00:00+00,2016,12,1D,Ward 2,Sexual Orientation,,Threats,812058,398315.94,137368.09,38.90416735,-77.0194153,,{7E75B5CA-5859-4319-A789-987E71CDF9E6},,,MPD,2024/02/16 21:02:52+00,4394,
-77.0005758969634,38.839436142412,17003228,3400 block of 4th ST SE,2017/01/05 05:00:00+00,1533,2017/01/06 05:00:00+00,2017,1,7D,Ward 8,Sexual Orientation,,Threats,815806,399950.2,130181.4,38.83942837,-77.00057362,,{9C01D693-41FA-42A9-9C15-2D3EAB7CE01B},,,MPD,2024/02/16 21:02:52+00,4395,
-77.021918846948,38.8991374923213,17008389,700 block of 7th St NW,2017/01/15 05:00:00+00,1812,2017/01/15 05:00:00+00,2017,1,1D,Ward 2,Political Affiliation,,Simple Assault,803289,398098.85,136808.92,38.89912971,-77.02191656,,{C73AD245-D83A-4817-8159-048A7E12136B},,,MPD,2024/02/16 21:02:52+00,4396,
-77.0743129035034,38.9125968230755,17009376,3800 block of Reservoir Rd NW,2017/01/17 05:00:00+00,1340,2017/01/17 05:00:00+00,2017,1,2D,Ward 2,Race,Black,ADW,816538,393555.15,138305.41,38.91258904,-77.0743106,,{740EE1B0-D1E6-44C3-80A0-A9C6495936DB},,,MPD,2024/02/16 21:02:52+00,4397,
-76.9802857105738,38.869486284557,17014388,1700 block of R St SE,2017/01/26 05:00:00+00,0703,2017/01/26 05:00:00+00,2017,1,6D,Ward 8,Gender Identity/Expression,,ADW,802238,401711.02278354,133517.36444134,38.8694785,-76.98028344,,{BE3C9067-CA58-41CB-BFC1-26042DE45DE2},,,MPD,2024/02/16 21:02:52+00,4398,
-77.0400881672321,38.9084852342745,17014929,1700 block of Massachusetts Ave NW,2017/01/27 05:00:00+00,0300,2017/01/27 05:00:00+00,2017,1,2D,Ward 2,Religion,Jewish,Damage/Defacing/Destruction of Property,811901,396523.21,137847.13,38.90847745,-77.04008587,,{350F8DA9-D99E-4E0E-8E37-DBE5BB9B9792},,,MPD,2024/02/16 21:02:52+00,4399,
-77.040093352533,38.907249287097,17016247,1700 block of N St NW,2017/01/29 05:00:00+00,0300,2017/01/29 05:00:00+00,2017,1,2D,Ward 2,Political Affiliation,,ADW,804804,396522.7,137709.93,38.9072415,-77.04009106,,{D90D4385-8048-476B-AF3F-4A23B692846E},,,MPD,2024/02/16 21:02:52+00,4400,
-77.0193776326794,38.894581690397,17029252,500 block of Indiana Ave NW,2017/02/03 05:00:00+00,1100,2017/02/20 05:00:00+00,2017,2,1D,Ward 2,Sexual Orientation,,Simple Assault,800013,398319.18,136303.14,38.8945739,-77.01937534,,{FB71F3B7-5068-4669-9F0E-46CD8181D2F8},,,MPD,2024/02/16 21:02:52+00,4401,
-77.0306336752656,38.907911021097,17020132,1300 block of Vermont Ave NW,2017/02/04 05:00:00+00,1900,2017/02/04 05:00:00+00,2017,2,3D,Ward 2,Sexual Orientation,,ADW,810205,397343.21,137783.07,38.90790323,-77.03063138,,{5FA2F670-7B40-41DA-9B16-BC5736239E5B},,,MPD,2024/02/16 21:02:52+00,4402,
-77.0731902018467,38.9268633946351,17021479,2800 block of Wisconsin Ave NW,2017/02/06 05:00:00+00,1700,2017/02/07 05:00:00+00,2017,2,2D,Ward 3,Religion,Jewish,Threats,812996,393653.79,139889.04,38.9268556,-77.07318789,,{0E069FCF-A114-4EDD-B877-EF896CA36224},,,MPD,2024/02/16 21:02:52+00,4403,
-77.0423677621623,38.9216308360012,17027193,2400 block of 18th St NW,2017/02/17 05:00:00+00,0225,2017/02/17 05:00:00+00,2017,2,3D,Ward 1,Race,Black,Simple Assault,813850,396326.17,139306.49,38.92162305,-77.04236546,,{A4E04ADE-5710-4E06-8816-BFA0BBBB2839},,,MPD,2024/02/16 21:02:52+00,4404,
-77.0429519042563,38.9224992955308,17027720,1800 block of Columbia Rd NW,2017/02/18 05:00:00+00,0025,2017/02/18 05:00:00+00,2017,2,3D,Ward 1,Ethnicity/National Origin,Black/African,Threats,807751,396275.56,139402.92,38.9224915,-77.04294961,,{D8AAFACD-47FC-400C-B6D2-A203873612E4},,,MPD,2024/02/16 21:02:52+00,4405,
-77.0731902018467,38.9268633946351,17029569,2800 block of Wisconsin Ave NW,2017/02/18 05:00:00+00,0948,2017/02/21 05:00:00+00,2017,2,2D,Ward 3,Religion,Jewish,Threats,812996,393653.79,139889.04,38.9268556,-77.07318789,,{022DC124-957B-43F4-B305-6F6697696446},,,MPD,2024/02/16 21:02:52+00,4406,
-76.9984525859422,38.8397235933409,17029776,3300 block of 6th St SE,2017/02/21 05:00:00+00,1500,2017/02/21 05:00:00+00,2017,2,7D,Ward 8,Sexual Orientation,,Damage/Defacing/Destruction of Property,809813,400134.54,130213.31,38.83971582,-76.99845031,,{E79CDE55-9BBA-4CEA-A9B4-4273C5DF52A6},,,MPD,2024/02/16 21:02:52+00,4407,
-77.0336468782466,38.8978374986173,17031021,600 block of 15th St NW,2017/02/22 05:00:00+00,1820,2017/02/23 05:00:00+00,2017,2,2D,Ward 2,Sexual Orientation,,Simple Assault,803528,397081.45,136664.92,38.89782971,-77.03364458,,{CC09A4D5-60D4-4FD6-B611-8166609B1653},,,MPD,2024/02/16 21:02:52+00,4408,
-77.0384868410645,38.9115051897783,12003845,1600 block of 17th St NW ,2012/01/08 05:00:00+00,1500-1505,2012/01/08 05:00:00+00,2012,1,3D,Ward 2,Sexual Orientation,,Threats,808622,396662.24,138182.31,38.9114974,-77.03848454,,{9A5432AE-1BD0-427E-BD5B-048F6CC3E448},,,MPD,2024/02/16 21:02:52+00,4409,
-77.0152104036257,38.8784219909277,12005834,3rd St SW and K St SW,2012/01/12 05:00:00+00,1722,2012/01/12 05:00:00+00,2012,1,1D,Ward 6,Sexual Orientation,,Robbery,903177,398680.39001273,134509.21999426,38.87841421,-77.01520812,,{DA389AB9-C109-44CB-A270-1F801456E4B4},,,MPD,2024/02/16 21:02:52+00,4410,
-77.0267611748033,38.9323292730779,12006285,Park Rd NW and Sherman Ave NW,2012/01/13 05:00:00+00,1255-1258,2012/01/13 05:00:00+00,2012,1,4D,Ward 1,Race,Unspecified,Simple Assault,902294,397679.8830038,140493.59539181,38.93232148,-77.02675888,,{FBE486DD-2F35-4427-AD0F-D665AA00CFE2},,,MPD,2024/02/16 21:02:52+00,4411,
-77.0416584150421,38.9167880778494,12006742,18th St NW and Florida Ave NW,2012/01/14 05:00:00+00,0431-0433,2012/01/14 05:00:00+00,2012,1,3D,Ward 2,Ethnicity/National Origin,Arab/Middle Eastern,Simple Assault,904132,396387.4374986,138768.87500621,38.91678029,-77.04165612,,{773D8042-69BF-4880-ADAE-E2FB8E39CD4B},,,MPD,2024/02/16 21:02:52+00,4412,
-77.020914492172,38.8998196995033,12010912,600 block of H St NW,2012/01/22 05:00:00+00,1930,2012/01/22 05:00:00+00,2012,1,1D,Ward 2,Race,Asian,Threats,807858,398185.99,136884.63,38.89981191,-77.0209122,,{B23C5472-A2FB-45E4-A646-00BFCA0B11A6},,,MPD,2024/02/16 21:02:52+00,4413,
-76.9867914547935,38.8450846851627,12010626,1300 block of Alabama Ave SE,2012/01/22 05:00:00+00,0145,2012/01/22 05:00:00+00,2012,1,7D,Ward 8,Sexual Orientation,,ADW,812079,401146.84,130808.51,38.84507691,-76.98678918,,{4932A437-6ECE-4D05-B9B4-90B8AD8A99B2},,,MPD,2024/02/16 21:02:52+00,4414,
-77.0020436918123,38.8837628672972,12019568,400 block of 3rd St SE,2012/02/08 05:00:00+00,1200-1230,2012/02/09 05:00:00+00,2012,2,1D,Ward 6,Race,Black,Threats,803721,399822.88,135101.99,38.88375508,-77.00204141,,{6EAA1395-4148-4738-8619-3CCD2D9A4C8C},,,MPD,2024/02/16 21:02:52+00,4415,
-77.0328097019695,38.887759980459,12021883,1400 block of Independence Ave SW,2012/02/14 05:00:00+00,0900-0915,2012/02/14 05:00:00+00,2012,2,1D,Ward 2,Ethnicity/National Origin,Unspecified,Simple Assault,802956,397153.67,135546.21,38.8877522,-77.03280741,,{89A1632B-F094-485B-8F51-D19A8E920997},,,MPD,2024/02/16 21:02:52+00,4416,
-77.0224863860411,38.9419628791176,12026003,700 block of Upshur St NW,2012/02/23 05:00:00+00,0150-0153,2012/02/23 05:00:00+00,2012,2,4D,Ward 4,Sexual Orientation,,Robbery,800289,398050.79,141562.91,38.94195508,-77.02248409,,{F16C39F9-34CF-49BB-B495-1CEC59C797EF},,,MPD,2024/02/16 21:02:52+00,4417,
-77.0270556279819,38.8875736303972,12038547,1000 block of Independence Ave SW,2012/03/08 05:00:00+00,1655-1730,2012/03/20 04:00:00+00,2012,3,1D,Ward 6,Sexual Orientation,,Threats,813117,397652.88,135525.36,38.88756585,-77.02705334,,{DB5E225A-CC2B-42FB-B0E3-933697B22C81},,,MPD,2024/02/16 21:02:52+00,4418,
-77.0327321588336,38.9295246790098,12034069,3100 block of 14th St NW,2012/03/11 05:00:00+00,0636-0700,2012/03/11 05:00:00+00,2012,3,3D,Ward 1,Sexual Orientation,,ADW,800897,397162.06,140182.43,38.92951689,-77.03272986,,{08A5602B-C17C-473B-B67E-B9D90D94BD98},,,MPD,2024/02/16 21:02:52+00,4419,
-77.0232311437383,38.929048522448,12034811,Irving St NW and Georgia Ave NW,2012/03/12 04:00:00+00,2135-2140,2012/03/12 04:00:00+00,2012,3,3D,Ward 1,Sexual Orientation,,Robbery,902773,397985.85999608,140129.31999947,38.92904073,-77.02322885,,{CAA170D3-67F7-4304-9B37-8ECD1E060694},,,MPD,2024/02/16 21:02:52+00,4420,
-76.9476497764775,38.8966636721616,12036881,4000 block of Minnesota Ave NE,2012/03/16 04:00:00+00,2315,2012/03/17 04:00:00+00,2012,3,6D,Ward 7,Sexual Orientation,,Robbery,816435,404541.47,136535.38,38.89665588,-76.94764751,,{754053AD-82BD-4011-A57F-14053F8A8D58},,,MPD,2024/02/16 21:02:52+00,4421,
-77.0239471093064,38.9173845822639,12040991,2000 block of 9th St NW,2012/03/25 04:00:00+00,0257-0258,2012/03/25 04:00:00+00,2012,3,3D,Ward 1,Sexual Orientation,,Simple Assault,805059,397923.44,138834.54,38.91737679,-77.02394482,,{59454D1C-A1A4-4CBF-AA26-4FC9201D9C19},,,MPD,2024/02/16 21:02:52+00,4422,
-76.9935120535432,38.8443655817496,12042017,3000 block of 9th St SE,2012/03/27 04:00:00+00,1400-1435,2012/03/27 04:00:00+00,2012,3,7D,Ward 8,Sexual Orientation,,Simple Assault,814370,400563.42627048,130728.62159075,38.8443578,-76.99350978,,{0624D969-BF99-4055-B725-699C1EC90D86},,,MPD,2024/02/16 21:02:52+00,4423,
-77.0575805142022,38.9050971786791,12042817,2800 block of Pennsylvania Ave NW,2012/03/29 04:00:00+00,0150,2012/03/29 04:00:00+00,2012,3,2D,Ward 2,Ethnicity/National Origin,Arab/Middle Eastern,Simple Assault,807663,395005.8,137471.84,38.90508939,-77.05757821,,{BE605B5A-B6C0-4BEE-93BA-C86EE8ADBCF5},,,MPD,2024/02/16 21:02:52+00,4424,
-77.0319555858751,38.914470001592,12059617,1800 block of 14th St NW,2012/04/04 04:00:00+00,0200,2012/05/02 04:00:00+00,2012,5,3D,Ward 2,Race,Black,Simple Assault,810471,397228.81,138511.21,38.91446221,-77.03195329,,{9514B080-14D0-4B13-BC3D-047686459794},,,MPD,2024/02/16 21:02:52+00,4425,
-77.0301986074395,38.8955141023358,12052642,1300 block of Pennsylvania Ave NW,2012/04/06 04:00:00+00,0832-1241,2012/04/18 04:00:00+00,2012,4,2D,Ward 2,Race,Black,Threats,800757,397380.49,136406.9,38.89550632,-77.03019631,,{72208D5C-5362-4028-96D2-4765E306C7D6},,,MPD,2024/02/16 21:02:52+00,4426,
-76.9750662242182,38.8439225197668,12050382,1900 block of Mississippi Ave SE,2012/04/13 04:00:00+00,1833-1845,2012/04/13 04:00:00+00,2012,4,7D,Ward 8,Sexual Orientation,,Simple Assault,814208,402164.74979196,130679.7141667,38.84391474,-76.97506395,,{EF182EEA-FAEF-47F1-B5AC-B3F36F08DE09},,,MPD,2024/02/16 21:02:52+00,4427,
-77.0348893554683,38.9355600710027,12052410,1500 block of Ogden St NW,2012/04/17 04:00:00+00,2140,2012/04/17 04:00:00+00,2012,4,4D,Ward 1,Gender Identity/Expression,,Threats,803978,396975.27,140852.48,38.93555228,-77.03488706,,{05A595D1-DEDE-45AF-9FC0-E193CA39045B},,,MPD,2024/02/16 21:02:52+00,4428,
-77.048798809564,38.9096422390305,12058115,22nd St NW and P St NW,2012/04/29 04:00:00+00,0230,2012/04/29 04:00:00+00,2012,4,2D,Ward 2,Race,Unspecified,Damage/Defacing/Destruction of Property,906688,395767.77397803,137975.93481347,38.90963445,-77.04879651,,{873BF98C-1BCE-4180-9572-3785C21661F4},,,MPD,2024/02/16 21:02:52+00,4429,
-77.0332436347909,38.9181221614116,12060407,1400 block of V St NW,2012/05/03 04:00:00+00,2149-2248,2012/05/04 04:00:00+00,2012,5,5D,Ward 1,Sexual Orientation,,Threats,811679,397117.25,138916.67,38.91811437,-77.03324134,,{51A54010-4069-47BE-994D-6FC9D450F0E5},,,MPD,2024/02/16 21:02:52+00,4430,
-77.0226441797408,38.9354112950727,12062696,700 block of Princeton Pl NW,2012/05/08 04:00:00+00,0830,2012/05/08 04:00:00+00,2012,5,4D,Ward 1,Race,Black,Damage/Defacing/Destruction of Property,806742,398036.93,140835.63,38.9354035,-77.02264189,,{8A832B4F-E27E-4C36-A7B1-A5772B576C3B},,,MPD,2024/02/16 21:02:52+00,4431,
-76.9961696083577,38.9002126522711,12066780,7th St NE and H St NE,2012/05/16 04:00:00+00,0130,2012/05/16 04:00:00+00,2012,5,1D,Ward 6,Gender Identity/Expression,,Simple Assault,901151,400332.45999826,136928.0500125,38.90020486,-76.99616733,,{0CBE08F1-3504-4D80-B684-999B07C06CF9},,,MPD,2024/02/16 21:02:52+00,4432,
-77.0416886663738,38.9056630454988,12069176,18th St NW and M St NW,2012/05/20 04:00:00+00,1000,2012/05/20 04:00:00+00,2012,5,2D,Ward 2,Sexual Orientation,,Simple Assault,906209,396384.2500106,137533.90626906,38.90565526,-77.04168637,,{69179421-DF4E-4845-97B1-6C3CC982048E},,,MPD,2024/02/16 21:02:52+00,4433,
-77.0144522349979,38.9025247167714,12077382,200 block of K St NW,2012/06/05 04:00:00+00,0312-0345,2012/06/05 04:00:00+00,2012,6,1D,Ward 6,Race,Unspecified,Simple Assault,810843,398746.6,137184.8,38.90251693,-77.01444995,,{39533433-879E-4D02-BDD9-B31B05AABD28},,,MPD,2024/02/16 21:02:52+00,4434,
-77.0375014904977,38.9126167791993,12079041,1600 block of R St NW,2012/06/08 04:00:00+00,0220-0223,2012/06/08 04:00:00+00,2012,6,3D,Ward 2,Sexual Orientation,,Simple Assault,812936,396747.75,138305.67,38.91260899,-77.03749919,,{4C7F625A-3E09-4992-907E-45331F1FD7FB},,,MPD,2024/02/16 21:02:52+00,4435,
-77.0175669460355,38.8921171639039,12082150,4th St NW and Pennsylvania Ave NW,2012/06/13 04:00:00+00,1937-1938,2012/06/13 04:00:00+00,2012,6,1D,Ward 6,Race,Unspecified,Threats,906301,398476.20518054,136029.52636367,38.89210938,-77.01756466,,{EDF1286F-335B-4C68-9B2C-9F0079D54EFA},,,MPD,2024/02/16 21:02:52+00,4436,
-77.0373528938476,38.9287411016649,12086552,Irving St NW and Mount Pleasant St NW,2012/06/22 04:00:00+00,0430,2012/06/22 04:00:00+00,2012,6,4D,Ward 1,Sexual Orientation,,Robbery,905760,396761.37001095,140095.59999944,38.92873331,-77.0373506,,{6367CCAC-1D59-4F11-9E6E-0F6B49797692},,,MPD,2024/02/16 21:02:52+00,4437,
-77.0319540542782,38.9092503887715,12087498,1400 block of 14th St NW,2012/06/23 04:00:00+00,2220-2225,2012/06/23 04:00:00+00,2012,6,3D,Ward 2,Sexual Orientation,,Simple Assault,811823,397228.74,137931.79,38.9092426,-77.03195176,,{745C185A-1EEC-49D7-82A8-9B642AC119BC},,,MPD,2024/02/16 21:02:52+00,4438,
-77.0207419057084,38.9156432537676,12089021,600 block of T St NW,2012/06/26 04:00:00+00,2040-2100,2012/06/27 04:00:00+00,2012,6,1D,Ward 2,Sexual Orientation,,ADW,800090,398201.36,138641.17,38.91563546,-77.02073961,,{B52D14FC-FCCE-4BE6-BD3E-5A6FE6C02B0C},,,MPD,2024/02/16 21:02:52+00,4439,
-76.9767816621276,38.8704586890465,12092554,1900 block of Minnesota Ave Ave SE,2012/06/30 04:00:00+00,0837-0840,2012/07/03 04:00:00+00,2012,7,6D,Ward 8,Gender Identity/Expression,,Simple Assault,806143,402015.08,133625.38,38.87045091,-76.97677939,,{955AC2B4-179B-4CA3-BBBC-5FF32334FDCB},,,MPD,2024/02/16 21:02:52+00,4440,
-77.0203194081405,38.9156017095009,12091566,600 block of Florida Ave NW,2012/07/01 04:00:00+00,0300-0330,2012/07/01 04:00:00+00,2012,7,3D,Ward 2,Sexual Orientation,,Simple Assault,810091,398238,138636.55,38.91559392,-77.02031712,,{CE32191C-085E-46F9-B6B0-39866C04EFA0},,,MPD,2024/02/16 21:02:52+00,4441,
-77.0416836705711,38.9192095534576,12091731,2200 block of 18th St NW,2012/07/01 04:00:00+00,2250,2012/07/01 04:00:00+00,2012,7,3D,Ward 1,Sexual Orientation,,Simple Assault,811212,396385.37,139037.68,38.91920176,-77.04168137,,{D1FF6182-2878-4E3A-9FA5-06EBC6117B30},,,MPD,2024/02/16 21:02:52+00,4442,
-77.0392772426287,38.9140993512525,12092003,New Hampshire Ave NW and S St NW,2012/07/01 04:00:00+00,1900-1903,2012/07/01 04:00:00+00,2012,7,2D,Ward 2,Ethnicity/National Origin,Asian,Simple Assault,900574,396593.81250679,138470.31250993,38.91409156,-77.03927495,,{67176FA9-4473-4596-8CD2-B370CAC3A855},,,MPD,2024/02/16 21:02:52+00,4443,
-77.0319515669748,38.9088455543765,12101740,14th St NW and Rhode Island Ave NW,2012/07/17 04:00:00+00,1330,2012/07/17 04:00:00+00,2012,7,3D,Ward 2,Disability,,Simple Assault,906402,397228.93999538,137886.85001339,38.90883777,-77.03194927,,{C8D55D67-D639-4133-935F-292A810C8950},,,MPD,2024/02/16 21:02:52+00,4444,
-77.0219173103399,38.9021091423304,12109242,7th St NW and K St NW,2012/08/04 04:00:00+00,0400,2012/08/04 04:00:00+00,2012,8,1D,Ward 6,Sexual Orientation,,Robbery,900796,398099.06249219,137138.7968927,38.90210135,-77.02191502,,{A5AF4148-2C12-4BA8-80E2-55A277343DC1},,,MPD,2024/02/16 21:02:52+00,4445,
-76.9348344094435,38.8837408335444,12110368,E St SE and Benning Rd SE,2012/08/06 04:00:00+00,1500,2012/08/06 04:00:00+00,2012,8,6D,Ward 7,Sexual Orientation,,Robbery,910993,405654.2000032,135101.55999481,38.88373305,-76.93483215,,{1B6D1E6D-2626-483C-B0E0-2BEFEFC315C5},,,MPD,2024/02/16 21:02:52+00,4446,
-77.0161764760636,38.9031350770795,12112229,1000 block of 4th St NW,2012/08/10 04:00:00+00,0045,2012/08/10 04:00:00+00,2012,8,Unk,Ward 6,Gender Identity/Expression,,Simple Assault,806790,398597.05,137252.58,38.90312729,-77.01617419,,{B0BBBD11-700F-4611-B5A2-DB9A7DBF7424},,,MPD,2024/02/16 21:02:52+00,4447,
-77.0199081040202,38.8990680375135,12113128,700 block of 6th St NW,2012/08/11 04:00:00+00,1746,2012/08/11 04:00:00+00,2012,8,1D,Ward 2,Religion,Jewish,Threats,813230,398273.27,136801.17,38.89906025,-77.01990581,,{68D16D1C-67EA-4BBC-849E-CD3D78A04804},,,MPD,2024/02/16 21:02:52+00,4448,
-77.0234512794588,38.8984605766108,12114937,800 block of G St NW,2012/08/15 04:00:00+00,1050,2012/08/15 04:00:00+00,2012,8,1D,Ward 2,Political Affiliation,,ADW,803164,397965.9,136733.81,38.89845279,-77.02344899,,{712C0F3A-7AC8-41D0-94ED-A09117AD1D6E},,,MPD,2024/02/16 21:02:52+00,4449,
-77.0058880059918,38.9042176819162,12116716,1100 block of 1st St NE,2012/08/18 04:00:00+00,1745,2012/08/18 04:00:00+00,2012,8,5D,Ward 6,Sexual Orientation,,Threats,800351,399489.48,137372.65,38.90420989,-77.00588572,,{72B201A5-41C9-48CF-9FC7-32D92CDFD412},,,MPD,2024/02/16 21:02:52+00,4450,
-76.9780501243839,38.8698269945566,12117324,1800 block of Minnesota Ave SE,2012/08/19 04:00:00+00,2130-2135,2012/08/19 04:00:00+00,2012,8,6D,Ward 8,Gender Identity/Expression,,ADW,806952,401905.02,133555.23,38.86981921,-76.97804785,,{82AB1555-5EF9-4EF9-B661-3F5AF44F5FBD},,,MPD,2024/02/16 21:02:52+00,4451,
-77.0027709554849,38.8422470178505,12118951,3300 block of Martin Luther King Jr Ave,2012/08/23 04:00:00+00,0241,2012/08/23 04:00:00+00,2012,8,7D,Ward 8,Sexual Orientation,,Simple Assault,806338,399759.64,130493.43,38.84223924,-77.00276867,,{2BC85DA0-F55A-4ABB-B5AD-68BD4684C70C},,,MPD,2024/02/16 21:02:52+00,4452,
-76.9408964487506,38.8990711001312,12046039,4200 block of Gault Pl NE,2012/08/23 04:00:00+00,1200-1800,2012/04/04 04:00:00+00,2012,4,6D,Ward 7,Sexual Orientation,,Threats,812613,405127.13389071,136802.98121238,38.89906331,-76.94089418,,{55CEF994-A640-464F-9DC3-0105A67A29B2},,,MPD,2024/02/16 21:02:52+00,4453,
-77.0204640208903,38.9128501777204,12119254,600 block of Rhode Island Ave NW,2012/08/23 04:00:00+00,1656,2012/08/23 04:00:00+00,2012,8,3D,Ward 2,Sexual Orientation,,Simple Assault,813924,398225.39,138331.11,38.91284239,-77.02046173,,{DC0ED930-0F64-4FD0-8123-F4E7E31A8BBA},,,MPD,2024/02/16 21:02:52+00,4454,
-77.0017464232429,38.8216374744507,12120516,4700 block of South Capitol St SE,2012/08/25 04:00:00+00,2353,2012/08/25 04:00:00+00,2012,8,7D,Ward 8,Sexual Orientation,,ADW,809409,399848.54,128205.63,38.8216297,-77.00174414,,{EE51BC8B-49BC-45A6-B6F4-587AF625C7DF},,,MPD,2024/02/16 21:02:52+00,4455,
-77.0498076748133,38.9079418949156,12121983,1300 block of 23rd St NW,2012/08/29 04:00:00+00,0010-0031,2012/08/29 04:00:00+00,2012,8,2D,Ward 2,Sexual Orientation,,Robbery,814994,395680.17,137787.23,38.90793411,-77.04980538,,{F44AF5CD-BD35-4848-ABD3-CC6D720F8A29},,,MPD,2024/02/16 21:02:52+00,4456,
-76.9767816621276,38.8704586890465,12123570,1900 block of Minnesota Ave SE,2012/08/31 04:00:00+00,2353,2012/08/31 04:00:00+00,2012,8,6D,Ward 8,Sexual Orientation,,Robbery,806143,402015.08,133625.38,38.87045091,-76.97677939,,{38B26D1E-1CB8-4085-9933-357A548058E1},,,MPD,2024/02/16 21:02:52+00,4457,
-77.0327321588336,38.9295246790098,12124273,3100 block of 14th St NW,2012/09/02 04:00:00+00,1411,2012/09/02 04:00:00+00,2012,9,3D,Ward 1,Religion,Other/Unknown Religion,Robbery,800897,397162.06,140182.43,38.92951689,-77.03272986,,{3933B29F-A76B-4D7E-A5BE-B739942E2CFF},,,MPD,2024/02/16 21:02:52+00,4458,
-77.0319549011012,38.9196324071323,12128457,2200 block of 14th St NW,2012/09/11 04:00:00+00,0207,2012/09/11 04:00:00+00,2012,9,3D,Ward 1,Sexual Orientation,,Simple Assault,810063,397229.07,139084.28,38.91962462,-77.03195261,,{02407F7C-9CEF-45D6-8AB6-59D058E2396D},,,MPD,2024/02/16 21:02:52+00,4459,
-77.0249810378749,38.9126143617263,12132265,900 block of R St NW,2012/09/18 04:00:00+00,1802,2012/09/18 04:00:00+00,2012,9,3D,Ward 2,Sexual Orientation,,ADW,812494,397833.63,138305.03,38.91260657,-77.02497875,,{A3F363C5-2597-4177-AEB4-44EFFA197484},,,MPD,2024/02/16 21:02:52+00,4460,
-77.0205163749403,38.9329126043312,12141095,3500 block of Warder St NW,2012/10/05 04:00:00+00,0800-1947,2012/10/05 04:00:00+00,2012,10,4D,Ward 1,Sexual Orientation,,Damage/Defacing/Destruction of Property,810158,398221.35,140558.21,38.93290481,-77.02051408,,{3C1B1454-2AD9-41A1-8124-CB11D8A0486C},,,MPD,2024/02/16 21:02:52+00,4461,
-77.042569950854,38.9056616800266,12146636,1800 block of M St NW,2012/10/12 04:00:00+00,1800-0820,2012/10/12 04:00:00+00,2012,10,2D,Ward 2,Religion,Jewish,Damage/Defacing/Destruction of Property,809121,396307.81,137533.79,38.90565389,-77.04256765,,{EDF17454-E355-4CDF-A8AE-C341EF792AFB},,,MPD,2024/02/16 21:02:52+00,4462,
-76.925887868039,38.8977676697387,12148536,600 block of Division Ave NE,2012/10/20 04:00:00+00,2258,2012/10/20 04:00:00+00,2012,10,6D,Ward 7,Gender Identity/Expression,,Simple Assault,814997,406429.17,136659.24,38.89775988,-76.92588561,,{B620FFDC-B503-480F-8657-9635FB38A327},,,MPD,2024/02/16 21:02:52+00,4463,
-77.0425766146644,38.9025328057819,12151408,1800 block of K St NW,2012/10/25 04:00:00+00,1800-1151 ,2012/10/26 04:00:00+00,2012,10,2D,Ward 2,Religion,Jewish,Damage/Defacing/Destruction of Property,805384,396307.07,137186.46,38.90252502,-77.04257432,,{75EDF05E-8B31-4DCC-87D1-FC24D378AD25},,,MPD,2024/02/16 21:02:52+00,4464,
-77.0342679950758,38.9335847338783,12151904,1400 block of Meridian Pl ,2012/10/27 04:00:00+00,0412,2012/10/27 04:00:00+00,2012,10,4D,Ward 1,Race,Unspecified,Robbery,802153,397029.06,140633.18,38.93357694,-77.0342657,,{AA1A6493-A508-4725-AF29-83FD8A3766C0},,,MPD,2024/02/16 21:02:52+00,4465,
-76.9959211429107,38.8506876823411,12153620,2700 block of Martin Luther King Jr Ave SE,2012/10/30 04:00:00+00,1230,2012/10/30 04:00:00+00,2012,10,7D,Ward 8,Sexual Orientation,,Simple Assault,802612,400354.25833428,131430.4068714,38.8506799,-76.99591886,,{32A63202-0EC1-45A9-9AEA-154A8B55AE17},,,MPD,2024/02/16 21:02:52+00,4466,
-76.9979062078073,38.9242465878383,12156229,600 block of Edgewood St NE,2012/11/05 05:00:00+00,1954,2012/11/05 05:00:00+00,2012,11,5D,Ward 5,Sexual Orientation,,Simple Assault,804594,400181.76,139596.01,38.92423879,-76.99790392,,{A6C6E650-D144-4E93-A00D-3C0DB3AAD216},,,MPD,2024/02/16 21:02:52+00,4467,
-77.0327957447313,38.9025305560349,12162862,1400 block of K St NW,2012/11/19 05:00:00+00,1452,2012/11/19 05:00:00+00,2012,11,2D,Ward 2,Race,Black,Simple Assault,805270,397155.47,137185.86,38.90252277,-77.03279345,,{A64CEDE1-0C41-44E8-BBF8-08ED8201AB19},,,MPD,2024/02/16 21:02:52+00,4468,
-76.9882790537111,38.9054773310025,12164492,Montello Ave NE and Oates St NE,2012/11/23 05:00:00+00,1000,2012/11/23 05:00:00+00,2012,11,5D,Ward 5,Sexual Orientation,,Robbery,905902,401016.8399989,137512.53001304,38.90546954,-76.98827677,,{C04C11C0-FF67-4270-A8D5-E0329B034293},,,MPD,2024/02/16 21:02:52+00,4469,
-77.0174001253449,38.916337440979,12171834,1900 block of 4th ST NW,2012/12/07 05:00:00+00,1900,2012/12/08 05:00:00+00,2012,12,3D,Ward 1,Race,Black,Damage/Defacing/Destruction of Property,809359,398491.19,138718.17,38.91632965,-77.01739784,,{F316C404-19AB-461C-9A1E-D7AA07F77D68},,,MPD,2024/02/16 21:02:52+00,4470,
-77.0308500517259,38.9616800814931,12173827,1300 block of Missouri Ave NW,2012/12/12 05:00:00+00,1746,2012/12/12 05:00:00+00,2012,12,4D,Ward 4,Sexual Orientation,,Robbery,808087,397326.46,143751.91,38.96167228,-77.03084775,,{8A7978D4-04C2-41EC-83E5-EC2330FDFA50},,,MPD,2024/02/16 21:02:52+00,4471,
-77.0755392082405,38.9620806155793,13000464,3800 block of Legation St NW,2013/01/02 05:00:00+00,1324,2013/01/02 05:00:00+00,2013,1,2D,Ward 3,Religion,Jewish,Damage/Defacing/Destruction of Property,806248,393453.34,143798.63,38.96207282,-77.0755369,,{FD9C2FC1-6833-4FD9-8FA6-5CD7328CDC07},,,MPD,2024/02/16 21:02:52+00,4472,
-77.0677183852033,38.9591945660292,13000847,5300 block of Nebraska Ave NW,2013/01/02 05:00:00+00,1600-0915,2013/01/03 05:00:00+00,2013,1,2D,Ward 3,Religion,Jewish,Damage/Defacing/Destruction of Property,811886,394130.92,143477.72,38.95918677,-77.06771608,,{F1A7DE10-DEE2-4F20-847F-5F9C794A5E24},,,MPD,2024/02/16 21:02:52+00,4473,
-76.9307982909007,38.8806290855823,13001980,5000 block of G St SE,2013/01/05 05:00:00+00,1952,2013/01/05 05:00:00+00,2013,1,6D,Ward 7,Gender Identity/Expression,,ADW,815559,406004.65,134756.39,38.8806213,-76.93079603,,{02D90808-14F9-4CE3-BC1D-8AB84A27C177},,,MPD,2024/02/16 21:02:52+00,4474,
-77.0327321588336,38.9295246790098,13005159,3100 block of 14th St NW,2013/01/12 05:00:00+00,1500,2013/01/12 05:00:00+00,2013,1,3D,Ward 1,Sexual Orientation,,Simple Assault,800897,397162.06,140182.43,38.92951689,-77.03272986,,{E26929FF-6439-43DC-A736-8F4A59618C3D},,,MPD,2024/02/16 21:02:52+00,4475,
-77.0375014904977,38.9126167791993,17200228,1600 block of R St NW,2017/11/19 05:00:00+00,0318,2017/11/19 05:00:00+00,2017,11,3D,Ward 2,Sexual Orientation,,Simple Assault,812936,396747.75,138305.67,38.91260899,-77.03749919,,{1C6DAE42-913B-4736-9411-BA811CCEA83A},,,MPD,2024/02/16 21:02:52+00,4476,
-77.0246367626532,38.9170041971694,17200709,900 block of U St NW,2017/11/20 05:00:00+00,0051,2017/11/20 05:00:00+00,2017,11,3D,Ward 1,Sexual Orientation,,ADW,813703,397863.62,138792.33,38.91699641,-77.02463447,,{F646808A-1E6C-4CF3-8888-0EC5197C08C7},,,MPD,2024/02/16 21:02:52+00,4477,
-77.0144522349979,38.9025247167714,17201401,200 block of K St NW,2017/11/21 05:00:00+00,0940,2017/11/21 05:00:00+00,2017,11,1D,Ward 6,Ethnicity/National Origin,Jewish,Damage/Defacing/Destruction of Property,810843,398746.6,137184.8,38.90251693,-77.01444995,,{EE053397-18E6-4FF2-8CA0-2E7D3593A0A8},,,MPD,2024/02/16 21:02:52+00,4478,
-77.0194228624104,38.8998185157102,17206791,500 block of H St NW,2017/11/23 05:00:00+00,1500,2017/11/30 05:00:00+00,2017,11,1D,Ward 2,Ethnicity/National Origin,Jewish,Damage/Defacing/Destruction of Property,800244,398315.38,136884.47,38.89981073,-77.01942057,,{9BC4C5A1-A318-4394-A1F6-1DC2723C5AD9},,,MPD,2024/02/16 21:02:52+00,4479,
-77.054758077416,38.9089794231404,17203063,1400 block of 26th St NW,2017/11/23 05:00:00+00,0830,2017/11/24 05:00:00+00,2017,11,2D,Ward 2,Ethnicity/National Origin,Jewish,Damage/Defacing/Destruction of Property,803613,395250.87,137902.65,38.90897164,-77.05475578,,{76983578-8EE7-47B2-AB42-F2B60343735E},,,MPD,2024/02/16 21:02:52+00,4480,
-77.0797638790927,38.9213077130878,17203090,2300 block of 40th Pl NW,2017/11/23 05:00:00+00,2230,2017/11/24 05:00:00+00,2017,11,2D,Ward 3,Race,Black,Damage/Defacing/Destruction of Property,812367,393083.24,139272.79,38.92129992,-77.07976157,,{60E68D08-7145-40F8-A64C-B7764A0F858A},,,MPD,2024/02/16 21:02:52+00,4481,
-77.0239715111157,38.9103933863641,17203324,1500 block of 9th St NW,2017/11/24 05:00:00+00,1947,2017/11/24 05:00:00+00,2017,11,3D,Ward 2,Ethnicity/National Origin,Arab/Middle Eastern,Simple Assault,808547,397921.12,138058.46,38.9103856,-77.02396922,,{608CDA70-B618-4F58-8EE8-13CDDD5D3519},,,MPD,2024/02/16 21:02:52+00,4482,
-77.0192056177811,38.9013306047836,17204268,500 block of I St NW,2017/11/26 05:00:00+00,1348,2017/11/26 05:00:00+00,2017,11,1D,Ward 6,Ethnicity/National Origin,Jewish,Damage/Defacing/Destruction of Property,801981,398334.26,137052.32,38.90132282,-77.01920333,,{39605F91-6272-4F3B-96A1-03F6251C0897},,,MPD,2024/02/16 21:02:52+00,4483,
-77.0171919882222,38.9005312464722,17204180,400 block of Massachusetts Ave NW,2017/11/26 05:00:00+00,0855,2017/11/26 05:00:00+00,2017,11,1D,Ward 6,Ethnicity/National Origin,Jewish,Damage/Defacing/Destruction of Property,806146,398508.91,136963.55,38.90052346,-77.0171897,,{EFF6346A-EE4B-4DE9-A533-92E912FBECAC},,,MPD,2024/02/16 21:02:52+00,4484,
-77.0219183028132,38.9014934488253,17204700,900 block of 7th St NW,2017/11/27 05:00:00+00,1041,2017/11/27 05:00:00+00,2017,11,1D,Ward 2,Ethnicity/National Origin,Jewish,Damage/Defacing/Destruction of Property,814494,398098.96,137070.45,38.90148566,-77.02191601,,{F2CA6E94-171C-403C-9499-6D71D5F9A88F},,,MPD,2024/02/16 21:02:52+00,4485,
-77.025020644115,38.9032476534395,17206400,900 block of Massachusetts Ave NW,2017/11/29 05:00:00+00,1731,2017/11/29 05:00:00+00,2017,11,2D,Ward 2,Race,Black,Damage/Defacing/Destruction of Property,812637,397829.91,137265.25,38.90323987,-77.02501835,,{9107C4D4-255D-4A74-8C63-94F1A4CBD363},,,MPD,2024/02/16 21:02:52+00,4486,
-76.9931424855264,38.9222243975062,17207984,900 block of Rhode Island Ave NE,2017/12/02 05:00:00+00,1254,2017/12/02 05:00:00+00,2017,12,5D,Ward 5,Ethnicity/National Origin,Unspecified,Simple Assault,814008,400594.86,139371.55,38.9222166,-76.9931402,,{967EC796-26B2-4909-BAA9-F610EAC47A95},,,MPD,2024/02/16 21:02:52+00,4487,
-76.9358486687529,38.8910596717357,17207852,100 block of 46th Pl NE,2017/12/02 05:00:00+00,0544,2017/12/02 05:00:00+00,2017,12,6D,Ward 7,Sexual Orientation,,Simple Assault,814357,405565.62829112,135913.94524356,38.89105188,-76.93584641,,{6D7F3878-C28D-4ABB-8DC4-5F235E950497},,,MPD,2024/02/16 21:02:52+00,4488,
-77.0090510278181,38.9129797179654,17210790,1700 block of North Capitol St NE,2017/12/06 05:00:00+00,2340,2017/12/07 05:00:00+00,2017,12,5D,Ward 5,Race,Black,ADW,800093,399215.22,138345.33,38.91297193,-77.00904874,,{408B6153-AB73-487E-BCE7-E72FCF37D89A},,,MPD,2024/02/16 21:02:52+00,4489,
-77.0013118493133,38.886777274007,17211297,300 block of Pennsylvania Ave SE,2017/12/07 05:00:00+00,1950,2017/12/07 05:00:00+00,2017,12,1D,Ward 6,Race,Black,Simple Assault,809147,399886.38214185,135436.61119512,38.88676949,-77.00130957,,{1B59DA52-2327-4DAA-A73B-E076B55BF605},,,MPD,2024/02/16 21:02:52+00,4490,
-77.0147886703067,38.8954446425989,17214121,400 block of 2nd St NW,2017/12/12 05:00:00+00,1912,2017/12/12 05:00:00+00,2017,12,1D,Ward 6,Ethnicity/National Origin,Jewish,Damage/Defacing/Destruction of Property,279729,398717.29,136398.86,38.89543686,-77.01478638,,{825F1041-7B52-4171-8FB9-5F808C26E2CA},,,MPD,2024/02/16 21:02:52+00,4491,
-77.032592571693,38.9281795966996,17215419,3000 block of 14th ST NW,2017/12/14 05:00:00+00,2316,2017/12/13 05:00:00+00,2017,12,3D,Ward 1,Sexual Orientation,,ADW,806449,397174.11,140033.11,38.9281718,-77.03259028,,{7E4BF3EC-33A0-41E7-8F1B-E1A177DCC070},,,MPD,2024/02/16 21:02:52+00,4492,
-77.0678449609779,38.9055065035041,17217042,1200 block of 34th St NW,2017/12/17 05:00:00+00,0940,2017/12/17 05:00:00+00,2017,12,2D,Ward 2,Race,Black,Damage/Defacing/Destruction of Property,808214,394115.52,137517.89,38.90549872,-77.06784266,,{3367661D-0691-48DC-8DB9-B9A1FDA92B61},,,MPD,2024/02/16 21:02:52+00,4493,
-77.0376834267387,38.9859162649488,17220567,1600 block of Kalmia RD NW,2017/12/23 05:00:00+00,1600,2017/12/23 05:00:00+00,2017,12,4D,Ward 4,Race,Black,Threats,806432,396735.33,146442.58,38.98590846,-77.03768113,,{C631A47E-22D6-49CB-894A-1E7C357E6136},,,MPD,2024/02/16 21:02:52+00,4494,
